,O3H8_level,regioncode,O3,latitude,CO_level,SYWRW,PM10H24,NO2,O3H8,O3_level,PM10_color,PM25_color,SO2,sitename,O3H8_color,AQI,NO2_level,AQI_level,PM10H24_level,districtcode,SO2_color,longitude,NO2_color,PM25,PM10_level,CO,PM25_level,CO_color,PM25H24_color,sitecode,PM25H24_level,AQI_color,districtname,O3_color,SO2_level,PM10,PM25H24,PM10H24_color,sort,time
0,优,330213,35,29.693,优,--,37,41,69,优,#00E400,#00E400,4,溪口政府大楼,#00E400,22,优,优,优,330200,#00E400,121.2774,#00E400,9,优,0.3,优,#00E400,#00E400,330283T_1,优,#00E400,宁波市,#00E400,优,22,22,#00E400,1,2026-05-30 04:00:00
1,优,330922,66,30.7269,优,--,20,7,96,优,#00E400,#00E400,7,嵊泗菜园,#00E400,22,优,优,优,330900,#00E400,122.4464,#00E400,12,优,0.4,优,#00E400,#00E400,330922001,优,#00E400,舟山市,#00E400,优,22,13,#00E400,1,2026-05-30 04:00:00
2,良,331082,76,28.873,优,--,38,25,107,优,#00E400,#00E400,6,临海环保大楼,#FFFF00,25,优,优,优,331000,#00E400,121.1769,#00E400,12,优,0.6,优,#00E400,#00E400,331082001,优,#00E400,台州市,#00E400,优,25,23,#00E400,3,2026-05-30 04:00:00
3,良,330226,76,29.3125,优,--,41,23,106,优,#00E400,#00E400,7,宁海水利局,#FFFF00,26,优,优,优,330200,#00E400,121.4306,#00E400,12,优,0.4,优,#00E400,#00E400,330226001,优,#00E400,宁波市,#00E400,优,26,24,#00E400,4,2026-05-30 04:00:00
4,良,331023,84,29.1504,优,--,41,23,116,优,#00E400,#00E400,6,育青中学,#FFFF00,27,优,优,优,331000,#00E400,121.0091,#00E400,12,优,0.6,优,#00E400,#00E400,331023001,优,#00E400,台州市,#00E400,优,21,24,#00E400,5,2026-05-30 04:00:00
5,优,330326,57,27.6653,优,--,34,9,67,优,#00E400,#00E400,6,平阳县政府,#00E400,28,优,优,优,330300,#00E400,120.5611,#00E400,18,优,0.7,优,#00E400,#00E400,330326002,优,#00E400,温州市,#00E400,优,28,22,#00E400,6,2026-05-30 04:00:00
6,良,331022,62,29.1028,优,--,38,19,103,优,#00E400,#00E400,6,心湖站,#FFFF00,28,优,优,优,331000,#00E400,121.3918,#00E400,13,优,0.5,优,#00E400,#00E400,331022002,优,#00E400,台州市,#00E400,优,28,24,#00E400,6,2026-05-30 04:00:00
7,良,330281,79,30.0497,优,--,32,22,111,优,#00E400,#00E400,6,龙山公园,#FFFF00,29,优,优,优,330200,#00E400,121.1475,#00E400,18,优,0.4,优,#00E400,#00E400,330281001,优,#00E400,宁波市,#00E400,优,29,20,#00E400,8,2026-05-30 04:00:00
8,良,330282,77,30.1636,优,--,33,27,113,优,#00E400,#00E400,6,慈溪环保大楼,#FFFF00,30,优,优,优,330200,#00E400,121.2677,#00E400,14,优,0.5,优,#00E400,#00E400,330282001,优,#00E400,宁波市,#00E400,优,30,18,#00E400,9,2026-05-30 04:00:00
9,良,330226,94,29.2878,优,--,40,15,112,优,#00E400,#00E400,8,宁海城南站,#FFFF00,30,优,优,优,330200,#00E400,121.4201,#00E400,11,优,0.4,优,#00E400,#00E400,330226002,优,#00E400,宁波市,#00E400,优,21,23,#00E400,9,2026-05-30 04:00:00
10,良,330225,95,29.4767,优,--,26,14,109,优,#00E400,#00E400,9,文峰小学,#FFFF00,30,优,优,优,330200,#00E400,121.8864,#00E400,8,优,0.6,优,#00E400,#00E400,330225001,优,#00E400,宁波市,#00E400,优,18,15,#00E400,9,2026-05-30 04:00:00
11,良,331023,94,29.1342,优,--,39,19,118,优,#00E400,#00E400,7,天台实验中学,#FFFF00,30,优,优,优,331000,#00E400,121.0349,#00E400,16,优,0.6,优,#00E400,#00E400,331023002,优,#00E400,台州市,#00E400,优,24,25,#00E400,9,2026-05-30 04:00:00
12,良,331081,95,28.37558,优,--,30,13,115,优,#00E400,#00E400,7,温岭环监站,#FFFF00,30,优,优,优,331000,#00E400,121.36579,#00E400,8,优,0.5,优,#00E400,#00E400,331081001,优,#00E400,台州市,#00E400,优,22,15,#00E400,9,2026-05-30 04:00:00
13,优,330213,70,29.6774,优,--,41,26,98,优,#00E400,#00E400,6,大桥市场,#00E400,31,优,优,优,330200,#00E400,121.4237,#00E400,15,优,0.3,优,#00E400,#00E400,330213001,优,#00E400,宁波市,#00E400,优,31,26,#00E400,14,2026-05-30 04:00:00
14,良,331082,88,28.84326,优,--,45,21,109,优,#00E400,#00E400,5,巾山实验小学,#FFFF00,31,优,优,优,331000,#00E400,121.136,#00E400,16,优,0.5,优,#00E400,#00E400,331082002,优,#00E400,台州市,#00E400,优,31,27,#00E400,14,2026-05-30 04:00:00
15,优,331126,89,27.629585,优,--,23,6,71,优,#00E400,#00E400,4,庆元监测楼,#00E400,31,优,优,优,331100,#00E400,119.054809,#00E400,19,优,0.7,优,#00E400,#00E400,331126001,优,#00E400,丽水市,#00E400,优,31,14,#00E400,14,2026-05-30 04:00:00
16,优,330213,79,29.6506,优,--,38,16,96,优,#00E400,#00E400,6,奉化教育局,#00E400,32,优,优,优,330200,#00E400,121.4042,#00E400,22,优,0.6,优,#00E400,#00E400,330283005,优,#00E400,宁波市,#00E400,优,29,26,#00E400,17,2026-05-30 04:00:00
17,良,330281,100,30.0358,优,--,33,18,119,优,#00E400,#00E400,5,姚江小学,#FFFF00,32,优,优,优,330200,#00E400,121.1221,#00E400,13,优,0.3,优,#00E400,#00E400,330281002,优,#00E400,宁波市,#00E400,优,21,21,#00E400,17,2026-05-30 04:00:00
18,良,330624,100,29.4938,优,--,39,14,124,优,#00E400,#00E400,5,城东站,#FFFF00,32,优,优,优,330600,#00E400,120.9109,#00E400,17,优,0.5,优,#00E400,#00E400,330624002,优,#00E400,绍兴市,#00E400,优,30,26,#00E400,17,2026-05-30 04:00:00
19,良,330726,102,29.439787,优,--,54,21,125,优,#00E400,#00E400,5,浦江中学,#FFFF00,32,优,优,良,330700,#00E400,119.924638,#00E400,17,优,0.5,优,#00E400,#00E400,330726002,优,#00E400,金华市,#00E400,优,29,34,#FFFF00,17,2026-05-30 04:00:00
20,良,330326,83,27.6593,优,--,26,8,107,优,#00E400,#00E400,9,平阳监测站,#FFFF00,33,优,优,优,330300,#00E400,120.5705,#00E400,19,优,0.7,优,#00E400,#00E400,330326001,优,#00E400,温州市,#00E400,优,33,26,#00E400,21,2026-05-30 04:00:00
21,良,330783,105,29.30093,优,--,50,11,116,优,#00E400,#00E400,6,广厦学院,#FFFF00,33,优,优,优,330700,#00E400,120.24157,#00E400,18,优,0.5,优,#00E400,#00E400,330783001,优,#00E400,金华市,#00E400,优,22,27,#00E400,21,2026-05-30 04:00:00
22,良,331024,103,28.8589,优,--,42,11,122,优,#00E400,#00E400,10,仙居环监站,#FFFF00,33,优,优,优,331000,#00E400,120.7248,#00E400,10,优,0.4,优,#00E400,#00E400,331024001,优,#00E400,台州市,#00E400,优,19,22,#00E400,21,2026-05-30 04:00:00
23,优,331127,71,27.9772,优,--,34,8,71,优,#00E400,#00E400,4,景宁县政府,#00E400,33,优,优,优,331100,#00E400,119.6311,#00E400,20,优,0.5,优,#00E400,#00E400,331127002,优,#00E400,丽水市,#00E400,优,33,22,#00E400,21,2026-05-30 04:00:00
24,优,330122,108,29.8058,优,--,64,13,97,优,#00E400,#00E400,5,桐庐江北,#00E400,34,优,优,良,330100,#00E400,119.669,#00E400,16,优,0.5,优,#00E400,#00E400,330122002,优,#00E400,杭州市,#00E400,优,24,35,#FFFF00,25,2026-05-30 04:00:00
25,良,330921,107,30.2517,优,--,20,6,124,优,#00E400,#00E400,6,岱山高亭,#FFFF00,34,优,优,优,330900,#00E400,122.1958,#00E400,6,优,0.3,优,#00E400,#00E400,330921002,优,#00E400,舟山市,#00E400,优,14,11,#00E400,25,2026-05-30 04:00:00
26,优,331126,108,27.6211,优,--,25,4,92,优,#00E400,#00E400,5,庆元气象局,#00E400,34,优,优,优,331100,#00E400,119.0788,#00E400,18,优,0.8,优,#00E400,#00E400,331126002,优,#00E400,丽水市,#00E400,优,31,15,#00E400,25,2026-05-30 04:00:00
27,良,330782,108,29.3686,优,--,56,16,124,优,#00E400,#00E400,9,第五中学,#FFFF00,34,优,优,良,330700,#00E400,120.1345,#00E400,16,优,0.7,优,#00E400,#00E400,330782003,优,#00E400,金华市,#00E400,优,31,31,#FFFF00,25,2026-05-30 04:00:00
28,优,330521,38,30.548493,优,--,50,24,59,优,#00E400,#00E400,7,春晖小学,#00E400,34,优,优,优,330500,#00E400,119.9505,#00E400,22,优,0.5,优,#00E400,#00E400,330521003,优,#00E400,湖州市,#00E400,优,34,34,#00E400,25,2026-05-30 04:00:00
29,良,330282,110,30.1786,优,--,28,15,125,优,#00E400,#00E400,13,慈溪实验小学,#FFFF00,35,优,优,优,330200,#00E400,121.2525,#00E400,16,优,0.5,优,#00E400,#00E400,330282002,优,#00E400,宁波市,#00E400,优,33,20,#00E400,30,2026-05-30 04:00:00
30,良,330324,104,28.044335,优,--,33,24,122,优,#00E400,#00E400,6,瓯北,#FFFF00,35,优,优,优,330300,#00E400,120.654963,#00E400,24,优,0.7,优,#00E400,#00E400,330324002,优,#00E400,温州市,#00E400,优,34,20,#00E400,30,2026-05-30 04:00:00
31,良,330424,109,30.5299,优,--,26,18,121,优,#00E400,#00E400,5,海盐商贸学校,#FFFF00,35,优,优,优,330400,#00E400,120.9293,#00E400,13,优,0.4,优,#00E400,#00E400,330424002,优,#00E400,嘉兴市,#00E400,优,26,19,#00E400,30,2026-05-30 04:00:00
32,良,330624,110,29.5036,优,--,44,11,122,优,#00E400,#00E400,6,钟楼站,#FFFF00,35,优,优,优,330600,#00E400,120.8938,#00E400,16,优,0.4,优,#00E400,#00E400,330624001,优,#00E400,绍兴市,#00E400,优,27,27,#00E400,30,2026-05-30 04:00:00
33,良,330726,111,29.465746,优,--,47,14,108,优,#00E400,#00E400,7,浦江实验中学,#FFFF00,35,优,优,优,330700,#00E400,119.875227,#00E400,14,优,0.6,优,#00E400,#00E400,330726001,优,#00E400,金华市,#00E400,优,24,30,#00E400,30,2026-05-30 04:00:00
34,良,330782,110,29.305096,优,--,49,9,126,优,#00E400,#00E400,6,江东,#FFFF00,35,优,优,优,330700,#00E400,120.090442,#00E400,13,优,0.5,优,#00E400,#00E400,330782002,优,#00E400,金华市,#00E400,优,17,30,#00E400,30,2026-05-30 04:00:00
35,良,330783,109,29.27739,优,--,39,16,121,优,#00E400,#00E400,7,东阳环保大楼,#FFFF00,35,优,优,优,330700,#00E400,120.23692,#00E400,14,优,0.4,优,#00E400,#00E400,330783002,优,#00E400,金华市,#00E400,优,16,25,#00E400,30,2026-05-30 04:00:00
36,良,331024,111,28.7403,优,--,42,12,131,优,#00E400,#00E400,8,新生中学,#FFFF00,35,优,优,优,331000,#00E400,120.4728,#00E400,9,优,0.5,优,#00E400,#00E400,331024002,优,#00E400,台州市,#00E400,优,20,24,#00E400,30,2026-05-30 04:00:00
37,良,330110,99,30.2635,优,--,55,22,119,优,#00E400,#00E400,9,海辰小学,#FFFF00,35,优,优,良,330100,#00E400,119.9842,#00E400,19,优,0.4,优,#00E400,#00E400,2013301100001,优,#00E400,杭州市,#00E400,优,35,32,#FFFF00,30,2026-05-30 04:00:00
38,优,330522,58,31.0263,优,--,36,18,94,优,#00E400,#00E400,6,龙山新区,#00E400,36,优,优,优,330500,#00E400,119.9046,#00E400,19,优,0.4,优,#00E400,#00E400,330522002,优,#00E400,湖州市,#00E400,优,36,22,#00E400,39,2026-05-30 04:00:00
39,良,330683,114,29.5663,优,--,36,17,120,优,#00E400,#00E400,6,丽湖小区,#FFFF00,36,优,优,优,330600,#00E400,120.8173,#00E400,11,优,0.4,优,#00E400,#00E400,330683002,优,#00E400,绍兴市,#00E400,优,18,26,#00E400,39,2026-05-30 04:00:00
40,良,330727,115,29.051486,优,--,43,11,123,优,#00E400,#00E400,8,国税大楼,#FFFF00,36,优,优,优,330700,#00E400,120.438346,#00E400,22,优,0.7,优,#00E400,#00E400,330727002,优,#00E400,金华市,#00E400,优,34,26,#00E400,39,2026-05-30 04:00:00
41,良,330782,113,29.335473,优,--,50,10,131,优,#00E400,#00E400,5,北苑,#FFFF00,36,优,优,优,330700,#00E400,120.078609,#00E400,19,优,0.7,优,#00E400,#00E400,330782001,优,#00E400,金华市,#00E400,优,30,32,#00E400,39,2026-05-30 04:00:00
42,良,331081,113,28.39136,优,--,29,8,140,优,#00E400,#00E400,4,之江高级中学,#FFFF00,36,优,优,优,331000,#00E400,121.37696,#00E400,13,优,0.4,优,#00E400,#00E400,331081002,优,#00E400,台州市,#00E400,优,17,22,#00E400,39,2026-05-30 04:00:00
43,良,330921,118,30.2669,优,--,21,13,124,优,#00E400,#00E400,5,岱山环保大楼,#FFFF00,37,优,优,优,330900,#00E400,122.2199,#00E400,9,优,0.4,优,#00E400,#00E400,330921001,优,#00E400,舟山市,#00E400,优,18,13,#00E400,44,2026-05-30 04:00:00
44,优,331123,26,28.5991,优,--,38,16,48,优,#00E400,#00E400,5,遂昌民政局,#00E400,37,优,优,优,331100,#00E400,119.2622,#00E400,24,优,0.6,优,#00E400,#00E400,331123001,优,#00E400,丽水市,#00E400,优,37,21,#00E400,44,2026-05-30 04:00:00
45,良,330681,120,29.7257,优,--,51,12,129,优,#00E400,#00E400,8,城新小学,#FFFF00,38,优,优,良,330600,#00E400,120.272,#00E400,10,优,0.3,优,#00E400,#00E400,330681505,优,#00E400,绍兴市,#00E400,优,18,32,#FFFF00,46,2026-05-30 04:00:00
46,良,330681,121,29.6818,优,--,40,6,138,优,#00E400,#00E400,6,杨树畈,#FFFF00,38,优,优,优,330600,#00E400,120.2359,#00E400,6,优,0.3,优,#00E400,#00E400,330681001,优,#00E400,绍兴市,#00E400,优,19,27,#00E400,46,2026-05-30 04:00:00
47,优,331123,33,28.5839,优,--,41,17,60,优,#00E400,#00E400,4,遂昌中学,#00E400,38,优,优,优,331100,#00E400,119.2656,#00E400,21,优,0.6,优,#00E400,#00E400,331123002,优,#00E400,丽水市,#00E400,优,38,22,#00E400,46,2026-05-30 04:00:00
48,优,330523,57,30.6422,优,--,48,25,67,优,#00E400,#00E400,7,安吉实验小学,#00E400,39,优,优,优,330500,#00E400,119.6768,#00E400,27,优,0.5,优,#00E400,#00E400,330523001,优,#00E400,湖州市,#00E400,优,29,32,#00E400,49,2026-05-30 04:00:00
49,良,330782,122,29.2637,优,--,64,11,135,优,#00E400,#00E400,7,儿童公园,#FFFF00,39,优,优,良,330700,#00E400,120.0321,#00E400,12,优,0.5,优,#00E400,#FFFF00,330782004,良,#00E400,金华市,#00E400,优,26,46,#FFFF00,49,2026-05-30 04:00:00
50,良,330381,126,27.791645,优,--,36,7,140,优,#00E400,#00E400,6,花园桥,#FFFF00,40,优,优,优,330300,#00E400,120.62372,#00E400,24,优,0.7,优,#00E400,#00E400,330381001,优,#00E400,温州市,#00E400,优,30,26,#00E400,51,2026-05-30 04:00:00
51,优,330521,53,30.5231,优,--,49,18,81,优,#00E400,#00E400,8,地信科创园,#00E400,40,优,优,优,330500,#00E400,119.9781,#00E400,27,优,0.5,优,#00E400,#00E400,330521001,优,#00E400,湖州市,#00E400,优,40,31,#00E400,51,2026-05-30 04:00:00
52,优,330822,104,28.901,优,--,44,9,67,优,#00E400,#00E400,4,常山环保大楼,#00E400,40,优,优,优,330800,#00E400,118.5196,#00E400,28,优,0.6,优,#00E400,#00E400,330822001,优,#00E400,衢州市,#00E400,优,39,21,#00E400,51,2026-05-30 04:00:00
53,良,331083,126,28.2221,优,--,28,16,146,优,#00E400,#00E400,7,楚门中心小学,#FFFF00,40,优,优,优,331000,#00E400,121.2846,#00E400,9,优,0.7,优,#00E400,#00E400,331021002,优,#00E400,台州市,#00E400,优,15,18,#00E400,51,2026-05-30 04:00:00
54,优,331125,49,28.1173,优,--,37,12,67,优,#00E400,#00E400,7,云和监测楼,#00E400,40,优,优,优,331100,#00E400,119.5626,#00E400,25,优,0.7,优,#00E400,#00E400,331125001,优,#00E400,丽水市,#00E400,优,40,20,#00E400,51,2026-05-30 04:00:00
55,良,330328,130,27.7838,优,--,31,4,129,优,#00E400,#00E400,5,大峃,#FFFF00,41,优,优,优,330300,#00E400,120.085,#00E400,19,优,0.5,优,#00E400,#00E400,330328001,优,#00E400,温州市,#00E400,优,25,21,#00E400,56,2026-05-30 04:00:00
56,良,330328,131,27.804722,优,--,36,4,119,优,#00E400,#00E400,7,文成中学,#FFFF00,41,优,优,优,330300,#00E400,120.077222,#00E400,23,优,0.5,优,#00E400,#00E400,330328002,优,#00E400,温州市,#00E400,优,29,24,#00E400,56,2026-05-30 04:00:00
57,良,330424,129,30.5042,优,--,30,9,132,优,#00E400,#00E400,6,高级中学,#FFFF00,41,优,优,优,330400,#00E400,120.9413,#00E400,11,优,0.4,优,#00E400,#00E400,330424001,优,#00E400,嘉兴市,#00E400,优,24,18,#00E400,56,2026-05-30 04:00:00
58,良,330681,130,29.726389,优,--,50,13,135,优,#00E400,#00E400,8,青少年宫,#FFFF00,41,优,优,优,330600,#00E400,120.199722,#00E400,10,优,0.2,优,#00E400,#00E400,330681002,优,#00E400,绍兴市,#00E400,优,19,31,#00E400,56,2026-05-30 04:00:00
59,良,330122,132,29.7955,优,--,69,12,112,优,#00E400,#00E400,6,桐庐江南,#FFFF00,42,优,优,良,330100,#00E400,119.6874,#00E400,11,优,0.4,优,#00E400,#00E400,330122001,优,#00E400,杭州市,#00E400,优,16,35,#FFFF00,60,2026-05-30 04:00:00
60,良,330225,137,29.2003,优,--,24,20,138,优,#00E400,#00E400,8,石浦新港小学,#FFFF00,43,优,优,优,330200,#00E400,121.934,#00E400,6,优,0.4,优,#00E400,#00E400,330225002,优,#00E400,宁波市,#00E400,优,16,15,#00E400,61,2026-05-30 04:00:00
61,良,330382,124,28.1209,优,--,37,8,150,优,#00E400,#00E400,5,乐成,#FFFF00,43,优,优,优,330300,#00E400,120.9659,#00E400,25,优,0.6,优,#00E400,#00E400,330382001,优,#00E400,温州市,#00E400,优,43,24,#00E400,61,2026-05-30 04:00:00
62,良,330324,93,28.158269,优,--,38,12,116,优,#00E400,#00E400,6,上塘,#FFFF00,43,优,优,优,330300,#00E400,120.694244,#00E400,24,优,0.8,优,#00E400,#00E400,330324001,优,#00E400,温州市,#00E400,优,43,22,#00E400,61,2026-05-30 04:00:00
63,良,330383,129,27.5812,优,--,40,10,152,优,#00E400,#00E400,8,龙港,#FFFF00,43,优,优,优,330300,#00E400,120.5489,#00E400,30,优,0.6,优,#00E400,#00E400,330327002,优,#00E400,温州市,#00E400,优,43,29,#00E400,61,2026-05-30 04:00:00
64,优,330822,105,28.9012,优,--,44,9,76,优,#00E400,#00E400,5,图书馆大楼,#00E400,43,优,优,优,330800,#00E400,118.5062,#00E400,28,优,0.6,优,#00E400,#00E400,330822002,优,#00E400,衢州市,#00E400,优,43,22,#00E400,61,2026-05-30 04:00:00
65,优,330824,26,29.1343,优,--,37,12,26,优,#00E400,#00E400,6,开化气象局,#00E400,43,优,优,优,330800,#00E400,118.402,#00E400,17,优,0.5,优,#00E400,#00E400,330824001,优,#00E400,衢州市,#00E400,优,43,16,#00E400,61,2026-05-30 04:00:00
66,优,331022,58,29.11779,优,--,40,35,94,优,#00E400,#00E400,6,三门环监楼,#00E400,43,优,优,优,331000,#00E400,121.382189,#00E400,23,优,0.6,优,#00E400,#00E400,331022001,优,#00E400,台州市,#00E400,优,43,24,#00E400,61,2026-05-30 04:00:00
67,良,330305,139,27.8342,优,--,26,7,150,优,#00E400,#00E400,8,洞头气象局,#FFFF00,44,优,优,优,330300,#00E400,121.1502,#00E400,5,优,0.5,优,#00E400,#00E400,330305001,优,#00E400,温州市,#00E400,优,15,18,#00E400,68,2026-05-30 04:00:00
68,良,330327,131,27.522222,优,--,40,6,148,优,#00E400,#00E400,7,苍南中学,#FFFF00,45,优,优,优,330300,#00E400,120.416111,#00E400,31,优,0.6,优,#00E400,#00E400,330327004,优,#00E400,温州市,#00E400,优,44,28,#00E400,69,2026-05-30 04:00:00
69,良,330727,117,29.039869,优,--,50,8,130,优,#00E400,#00E400,7,南园初中,#FFFF00,45,优,优,优,330700,#00E400,120.440622,#00E400,25,优,0.6,优,#00E400,#00E400,330727003,优,#00E400,金华市,#00E400,优,45,30,#00E400,69,2026-05-30 04:00:00
70,良,330784,114,28.8854,优,--,52,10,140,优,#00E400,#00E400,7,永康一中,#FFFF00,45,优,优,良,330700,#00E400,120.0439,#00E400,30,优,0.7,优,#00E400,#00E400,330784001,优,#00E400,金华市,#00E400,优,45,32,#FFFF00,69,2026-05-30 04:00:00
71,优,330824,26,29.1478,优,--,36,13,25,优,#00E400,#00E400,9,开化监测大楼,#00E400,45,优,优,优,330800,#00E400,118.4108,#00E400,28,优,0.4,优,#00E400,#00E400,330824002,优,#00E400,衢州市,#00E400,优,45,19,#00E400,69,2026-05-30 04:00:00
72,良,330383,126,27.5617,优,--,37,11,158,优,#00E400,#00E400,6,龙港实验中学,#FFFF00,45,优,优,优,330300,#00E400,120.5355,#00E400,31,优,0.5,优,#00E400,#00E400,330303101,优,#00E400,温州市,#00E400,优,40,29,#00E400,69,2026-05-30 04:00:00
73,良,330212,75,29.7736,优,--,38,23,102,优,#00E400,#00E400,5,钱湖水厂,#FFFF00,45,优,优,优,330200,#00E400,121.6330,#00E400,23,优,0.4,优,#00E400,#00E400,2013302120001,优,#00E400,宁波市,#00E400,优,45,22,#00E400,69,2026-05-30 04:00:00
74,良,330522,63,31.0143,优,--,44,24,106,优,#00E400,#00E400,4,职教中心,#FFFF00,46,优,优,优,330500,#00E400,119.8935,#00E400,19,优,0.4,优,#00E400,#00E400,330522001,优,#00E400,湖州市,#00E400,优,46,21,#00E400,75,2026-05-30 04:00:00
75,优,331124,46,28.4505,优,--,45,29,58,优,#00E400,#00E400,5,松阳监测楼,#00E400,46,优,优,优,331100,#00E400,119.4799,#00E400,32,优,0.6,优,#00E400,#00E400,331124001,优,#00E400,丽水市,#00E400,优,45,33,#00E400,75,2026-05-30 04:00:00
76,优,331124,54,28.4516,优,--,41,26,68,优,#00E400,#00E400,6,和平水厂,#00E400,46,优,优,优,331100,#00E400,119.4699,#00E400,28,优,0.6,优,#00E400,#00E400,331124002,优,#00E400,丽水市,#00E400,优,46,24,#00E400,75,2026-05-30 04:00:00
77,优,330483,81,30.6355,优,--,42,23,96,优,#00E400,#00E400,10,文化中心,#00E400,46,优,优,优,330400,#00E400,120.5795,#00E400,23,优,0.5,优,#00E400,#00E400,330483003,优,#00E400,嘉兴市,#00E400,优,46,23,#00E400,75,2026-05-30 04:00:00
78,良,330329,148,27.557,优,--,23,8,114,优,#00E400,#00E400,5,罗阳,#FFFF00,47,优,优,优,330300,#00E400,119.7084,#00E400,22,优,0.5,优,#00E400,#00E400,330329001,优,#00E400,温州市,#00E400,优,36,15,#00E400,79,2026-05-30 04:00:00
79,良,330327,114,27.503889,优,--,37,10,132,优,#00E400,#00E400,9,灵溪,#FFFF00,47,优,优,优,330300,#00E400,120.395278,#00E400,24,优,0.6,优,#00E400,#00E400,330327001,优,#00E400,温州市,#00E400,优,47,26,#00E400,79,2026-05-30 04:00:00
80,良,330481,78,30.5137,优,--,41,25,103,优,#00E400,#00E400,9,硖石街道,#FFFF00,47,优,优,优,330400,#00E400,120.7082,#00E400,18,优,0.5,优,#00E400,#00E400,330481002,优,#00E400,嘉兴市,#00E400,优,47,21,#00E400,79,2026-05-30 04:00:00
81,良,330481,88,30.5524,优,--,45,20,112,优,#00E400,#00E400,7,胜利社区,#FFFF00,47,优,优,优,330400,#00E400,120.6713,#00E400,26,优,0.5,优,#00E400,#00E400,330481003,优,#00E400,嘉兴市,#00E400,优,47,22,#00E400,79,2026-05-30 04:00:00
82,优,331127,55,28.002222,优,--,45,8,65,优,#00E400,#00E400,4,红星小学,#00E400,48,优,优,优,331100,#00E400,119.636389,#00E400,25,优,0.5,优,#00E400,#00E400,331127003,优,#00E400,丽水市,#00E400,优,48,21,#00E400,83,2026-05-30 04:00:00
83,优,331122,97,28.6628,优,--,50,18,81,优,#00E400,#00E400,7,信访大楼,#00E400,48,优,优,优,331100,#00E400,120.0856,#00E400,30,优,0.6,优,#00E400,#00E400,331122002,优,#00E400,丽水市,#00E400,优,48,29,#00E400,83,2026-05-30 04:00:00
84,优,331181,77,28.076,优,--,34,7,94,优,#00E400,#00E400,9,粮食大楼,#00E400,48,优,优,优,331100,#00E400,119.1217,#00E400,33,优,0.5,优,#00E400,#00E400,331181002,优,#00E400,丽水市,#00E400,优,37,31,#00E400,83,2026-05-30 04:00:00
85,良,330481,88,30.5261,优,--,45,20,113,优,#00E400,#00E400,8,海宁监测大楼,#FFFF00,49,优,优,优,330400,#00E400,120.6739,#00E400,24,优,0.3,优,#00E400,#00E400,330481001,优,#00E400,嘉兴市,#00E400,优,49,22,#00E400,86,2026-05-30 04:00:00
86,良,330483,81,30.6488,优,--,47,24,102,优,#00E400,#00E400,6,茅盾小学,#FFFF00,49,优,优,优,330400,#00E400,120.5498,#00E400,22,优,0.4,优,#00E400,#00E400,330483001,优,#00E400,嘉兴市,#00E400,优,49,23,#00E400,86,2026-05-30 04:00:00
87,良,330329,158,27.5438,优,--,24,6,117,优,#00E400,#00E400,6,泰顺实验中学,#FFFF00,50,优,优,优,330300,#00E400,119.716111,#00E400,30,优,0.5,优,#00E400,#00E400,330329002,优,#00E400,温州市,#00E400,优,40,13,#00E400,88,2026-05-30 04:00:00
88,优,330483,31,30.7369,优,--,41,57,80,优,#00E400,#00E400,8,植材小学,#00E400,50,优,优,优,330400,#00E400,120.4902,#00E400,23,优,0.6,优,#00E400,#00E400,330483509,优,#00E400,嘉兴市,#00E400,优,50,22,#00E400,88,2026-05-30 04:00:00
89,良,330381,126,27.782284,优,PM₁₀,42,8,145,优,#FFFF00,#00E400,8,安阳新区,#FFFF00,51,优,良,优,330300,#00E400,120.650915,#00E400,28,良,0.6,优,#00E400,#00E400,330381002,优,#FFFF00,温州市,#00E400,优,51,30,#00E400,90,2026-05-30 04:00:00
90,优,331122,122,28.6574,优,PM₁₀,53,22,100,优,#FFFF00,#00E400,7,缙云中学,#00E400,51,优,良,良,331100,#00E400,120.0696,#00E400,34,良,0.7,优,#00E400,#00E400,331122001,优,#FFFF00,丽水市,#00E400,优,51,31,#FFFF00,90,2026-05-30 04:00:00
91,良,330784,102,28.90016,优,PM₁₀,59,8,123,优,#FFFF00,#00E400,8,西城供电所,#FFFF00,52,优,良,良,330700,#00E400,120.01452,#00E400,34,良,0.6,优,#00E400,#00E400,330784002,优,#FFFF00,金华市,#00E400,优,52,32,#FFFF00,92,2026-05-30 04:00:00
92,优,331125,33,28.1062,优,PM₁₀,47,19,59,优,#FFFF00,#00E400,6,云和三中,#00E400,53,优,良,优,331100,#00E400,119.5728,#00E400,25,良,0.6,优,#00E400,#00E400,331125002,优,#FFFF00,丽水市,#00E400,优,54,23,#00E400,93,2026-05-30 04:00:00
93,优,331181,73,28.08007,优,PM₁₀,43,8,94,优,#FFFF00,#00E400,8,龙泉环保大楼,#00E400,53,优,良,优,331100,#00E400,119.1328,#00E400,27,良,0.5,优,#00E400,#00E400,331181001,优,#FFFF00,丽水市,#00E400,优,53,22,#00E400,93,2026-05-30 04:00:00
94,优,330482,81,30.6937,优,PM₁₀,38,18,99,优,#FFFF00,#00E400,8,平湖幼儿园,#00E400,55,优,良,优,330400,#00E400,121.0259,#00E400,33,良,0.7,优,#00E400,#00E400,330482001,优,#FFFF00,嘉兴市,#00E400,优,56,23,#00E400,95,2026-05-30 04:00:00
95,优,330881,114,28.7282,优,PM₂.₅,48,9,96,优,#FFFF00,#FFFF00,11,人民医院,#00E400,56,优,良,优,330800,#00E400,118.6227,#00E400,38,良,0.7,良,#00E400,#00E400,330881002,优,#FFFF00,衢州市,#00E400,优,53,29,#00E400,96,2026-05-30 04:00:00
96,优,330483,79,30.625,优,PM₁₀,52,26,96,优,#FFFF00,#00E400,6,振东新六中站,#00E400,57,优,良,良,330400,#00E400,120.5613,#00E400,27,良,0.5,优,#00E400,#00E400,330483002,优,#FFFF00,嘉兴市,#00E400,优,59,22,#FFFF00,97,2026-05-30 04:00:00
97,优,330421,76,30.836,优,PM₁₀,46,26,90,优,#FFFF00,#00E400,7,嘉善监测大楼,#00E400,59,优,良,优,330400,#00E400,120.9226,#00E400,33,良,0.4,优,#00E400,#00E400,330421001,优,#FFFF00,嘉兴市,#00E400,优,62,28,#00E400,98,2026-05-30 04:00:00
98,良,331121,76,28.1094,优,PM₂.₅,51,39,101,优,#FFFF00,#FFFF00,5,青田中学,#FFFF00,60,优,良,良,331100,#00E400,120.3161,#00E400,40,良,0.7,良,#00E400,#00E400,331121002,优,#FFFF00,丽水市,#00E400,优,54,29,#FFFF00,99,2026-05-30 04:00:00
99,良,330781,75,29.216166,优,PM₂.₅,53,17,104,优,#FFFF00,#FFFF00,6,兰溪监测站,#FFFF00,66,优,良,良,330700,#00E400,119.459992,#00E400,43,良,0.7,良,#00E400,#00E400,330781001,优,#FFFF00,金华市,#00E400,优,65,33,#FFFF00,100,2026-05-30 04:00:00
100,良,330781,79,29.229931,优,PM₂.₅,54,16,106,优,#FFFF00,#FFFF00,8,兰溪八中,#FFFF00,66,优,良,良,330700,#00E400,119.475172,#00E400,43,良,0.7,良,#00E400,#00E400,330781002,优,#FFFF00,金华市,#00E400,优,65,35,#FFFF00,100,2026-05-30 04:00:00
101,优,330421,65,30.8307,优,PM₁₀,40,38,83,优,#FFFF00,#00E400,9,气象观测台,#00E400,68,优,良,优,330400,#00E400,120.9356,#00E400,32,良,0.5,优,#00E400,#00E400,330421002,优,#FFFF00,嘉兴市,#00E400,优,74,20,#00E400,102,2026-05-30 04:00:00
102,优,330881,124,28.7465,优,PM₂.₅,50,6,97,优,#FFFF00,#FFFF00,6,江山环保大楼,#00E400,68,优,良,优,330800,#00E400,118.6301,#00E400,44,良,0.7,良,#00E400,#00E400,330881001,优,#FFFF00,衢州市,#00E400,优,52,32,#00E400,102,2026-05-30 04:00:00
103,优,330182,50,29.4769,优,PM₂.₅,51,10,83,优,#FFFF00,#FFFF00,6,建德监测大楼,#00E400,70,优,良,良,330100,#00E400,119.2711,#00E400,45,良,0.8,良,#00E400,#00E400,330182T_2,优,#FFFF00,杭州市,#00E400,优,67,30,#FFFF00,104,2026-05-30 04:00:00
104,良,330127,115,29.5995,优,PM₂.₅,44,8,120,优,#FFFF00,#FFFF00,10,淳安环保大楼,#FFFF00,72,优,良,优,330100,#00E400,119.0481,#00E400,46,良,0.8,良,#00E400,#00E400,330127001,优,#FFFF00,杭州市,#00E400,优,53,32,#00E400,105,2026-05-30 04:00:00
105,优,330182,63,29.4638,优,PM₂.₅,58,12,94,优,#FFFF00,#FFFF00,4,第二中学,#00E400,76,优,良,良,330100,#00E400,119.2821,#00E400,48,良,0.8,良,#00E400,#00E400,330182002,优,#FFFF00,杭州市,#00E400,优,58,34,#FFFF00,106,2026-05-30 04:00:00
106,良,330723,97,28.896108,优,PM₂.₅,54,13,117,优,#FFFF00,#FFFF00,8,武义县政府,#FFFF00,80,优,良,良,330700,#00E400,119.811352,#00E400,50,良,0.8,良,#00E400,#00E400,330723001,优,#FFFF00,金华市,#00E400,优,69,35,#FFFF00,107,2026-05-30 04:00:00
107,良,330825,114,29.0392,优,PM₂.₅,49,13,123,优,#FFFF00,#FFFF00,7,建设大楼,#FFFF00,80,优,良,优,330800,#00E400,119.1675,#00E400,50,良,0.7,良,#00E400,#00E400,330825001,优,#FFFF00,衢州市,#00E400,优,70,30,#00E400,107,2026-05-30 04:00:00
108,良,330723,98,28.9178,优,PM₂.₅,54,18,122,优,#FFFF00,#FFFF00,7,武义北岭幼儿园,#FFFF00,82,优,良,良,330700,#00E400,119.8022,#00E400,51,良,0.9,良,#00E400,#FFFF00,330723003,良,#FFFF00,金华市,#00E400,优,66,38,#FFFF00,109,2026-05-30 04:00:00
109,良,330382,122,28.0297,优,PM₂.₅,45,7,143,优,#FFFF00,#FFFF00,5,柳市,#FFFF00,88,优,良,优,330300,#00E400,120.891,#00E400,54,良,0.8,良,#00E400,#00E400,330382002,优,#FFFF00,温州市,#00E400,优,54,32,#00E400,110,2026-05-30 04:00:00
110,良,331121,108,28.1341,优,PM₂.₅,40,26,122,优,#00E400,#FFFF00,5,塔山小学,#FFFF00,90,优,良,优,331100,#00E400,120.2936,#00E400,55,优,0.7,良,#00E400,#00E400,331121001,优,#FFFF00,丽水市,#00E400,优,42,31,#00E400,111,2026-05-30 04:00:00
111,良,330803,87,28.9844,优,PM₂.₅,56,17,104,优,#FFFF00,#FF7E00,6,衢州三中（市）,#FFFF00,108,优,轻度污染,良,330800,#00E400,118.9628,#00E400,68,良,0.7,轻度污染,#00E400,#FFFF00,330803704,良,#FF7E00,衢州市,#00E400,优,86,39,#FFFF00,112,2026-05-30 04:00:00
112,良,330825,112,29.0464,优,PM₂.₅,65,13,126,优,#FFFF00,#FF7E00,5,龙游二高,#FFFF00,109,优,轻度污染,良,330800,#00E400,119.204,#00E400,69,良,0.6,轻度污染,#00E400,#FFFF00,330825002,良,#FF7E00,衢州市,#00E400,优,99,39,#FFFF00,113,2026-05-30 04:00:00
113,良,330127,118,29.605,优,--,45,9,129,优,#FFFF00,#FFFF00,--,老年活动中心,#FFFF00,--,优,--,优,330100,--,119.0372,#00E400,37,良,0.6,良,#00E400,#00E400,330127T_4,优,--,杭州市,#00E400,--,52,29,#00E400,114,2026-05-30 04:00:00
114,优,330482,79,30.7292,--,--,36,25,94,优,#00E400,#00E400,9,陆家桥村,#00E400,--,优,--,优,330400,#00E400,120.9953,#00E400,27,优,--,优,--,#00E400,330482002,优,--,嘉兴市,#00E400,优,48,25,#00E400,114,2026-05-30 04:00:00
115,--,330523,--,30.5974,--,--,--,--,--,--,--,--,--,安吉城东,--,--,--,--,--,330500,--,119.6953,--,--,--,--,--,--,--,330523002,--,--,湖州市,--,--,--,--,--,114,2026-05-30 04:00:00
116,良,330683,97,29.5901,优,--,44,23,125,优,#00E400,#00E400,--,马寅初初中,#FFFF00,--,优,--,优,330600,--,120.8249,#00E400,13,优,0.5,优,#00E400,#00E400,330683001,优,--,绍兴市,#00E400,--,26,28,#00E400,114,2026-05-30 04:00:00
117,良,331083,130,28.12715,优,--,31,6,140,优,#00E400,#00E400,--,玉环环监站,#FFFF00,--,优,--,优,331000,--,121.2339,#00E400,11,优,0.6,优,#00E400,#00E400,331021001,优,--,台州市,#00E400,--,18,21,#00E400,114,2026-05-30 04:00:00
