,O3H8_level,regioncode,O3,latitude,CO_level,SYWRW,PM10H24,NO2,O3H8,O3_level,PM10_color,PM25_color,SO2,sitename,O3H8_color,AQI,NO2_level,AQI_level,PM10H24_level,districtcode,SO2_color,longitude,NO2_color,PM25,PM10_level,CO,PM25_level,CO_color,PM25H24_color,sitecode,PM25H24_level,AQI_color,districtname,O3_color,SO2_level,PM10,PM25H24,PM10H24_color,sort,time
0,优,331126,69,27.629585,优,--,16,8,75,优,#00E400,#00E400,6,庆元监测楼,#00E400,22,优,优,优,331100,#00E400,119.054809,#00E400,9,优,0.4,优,#00E400,#00E400,331126001,优,#00E400,丽水市,#00E400,优,17,11,#00E400,1,2026-05-12 17:00:00
1,优,331123,67,28.5839,优,--,20,12,92,优,#00E400,#00E400,7,遂昌中学,#00E400,26,优,优,优,331100,#00E400,119.2656,#00E400,11,优,0.4,优,#00E400,#00E400,331123002,优,#00E400,丽水市,#00E400,优,26,13,#00E400,2,2026-05-12 17:00:00
2,优,331126,83,27.6211,优,--,21,10,80,优,#00E400,#00E400,5,庆元气象局,#00E400,26,优,优,优,331100,#00E400,119.0788,#00E400,13,优,0.6,优,#00E400,#00E400,331126002,优,#00E400,丽水市,#00E400,优,21,15,#00E400,2,2026-05-12 17:00:00
3,优,331127,85,28.002222,优,--,22,9,85,优,#00E400,#00E400,5,红星小学,#00E400,27,优,优,优,331100,#00E400,119.636389,#00E400,9,优,0.5,优,#00E400,#00E400,331127003,优,#00E400,丽水市,#00E400,优,18,12,#00E400,4,2026-05-12 17:00:00
4,优,331181,84,28.08007,优,--,33,8,92,优,#00E400,#00E400,8,龙泉环保大楼,#00E400,27,优,优,优,331100,#00E400,119.1328,#00E400,10,优,0.4,优,#00E400,#00E400,331181001,优,#00E400,丽水市,#00E400,优,19,16,#00E400,4,2026-05-12 17:00:00
5,优,330225,88,29.2003,优,--,18,20,91,优,#00E400,#00E400,7,石浦新港小学,#00E400,28,优,优,优,330200,#00E400,121.934,#00E400,6,优,0.4,优,#00E400,#00E400,330225002,优,#00E400,宁波市,#00E400,优,8,11,#00E400,6,2026-05-12 17:00:00
6,优,330824,89,29.1478,优,--,27,10,99,优,#00E400,#00E400,8,开化监测大楼,#00E400,28,优,优,优,330800,#00E400,118.4108,#00E400,14,优,0.4,优,#00E400,#00E400,330824002,优,#00E400,衢州市,#00E400,优,20,20,#00E400,6,2026-05-12 17:00:00
7,优,330225,92,29.4767,优,--,13,9,94,优,#00E400,#00E400,8,文峰小学,#00E400,29,优,优,优,330200,#00E400,121.8864,#00E400,7,优,0.4,优,#00E400,#00E400,330225001,优,#00E400,宁波市,#00E400,优,11,8,#00E400,8,2026-05-12 17:00:00
8,良,331123,90,28.5991,优,--,22,10,106,优,#00E400,#00E400,5,遂昌民政局,#FFFF00,29,优,优,优,331100,#00E400,119.2622,#00E400,11,优,0.4,优,#00E400,#00E400,331123001,优,#00E400,丽水市,#00E400,优,21,16,#00E400,8,2026-05-12 17:00:00
9,优,330305,95,27.8342,优,--,17,5,92,优,#00E400,#00E400,7,洞头气象局,#00E400,30,优,优,优,330300,#00E400,121.1502,#00E400,9,优,0.4,优,#00E400,#00E400,330305001,优,#00E400,温州市,#00E400,优,12,10,#00E400,10,2026-05-12 17:00:00
10,优,330329,95,27.557,优,--,26,7,98,优,#00E400,#00E400,6,罗阳,#00E400,30,优,优,优,330300,#00E400,119.7084,#00E400,16,优,0.5,优,#00E400,#00E400,330329001,优,#00E400,温州市,#00E400,优,21,19,#00E400,10,2026-05-12 17:00:00
11,优,330329,95,27.5438,优,--,24,7,96,优,#00E400,#00E400,6,泰顺实验中学,#00E400,30,优,优,优,330300,#00E400,119.716111,#00E400,14,优,0.4,优,#00E400,#00E400,330329002,优,#00E400,温州市,#00E400,优,24,16,#00E400,10,2026-05-12 17:00:00
12,优,330922,95,30.7269,优,--,7,4,87,优,#00E400,#00E400,7,嵊泗菜园,#00E400,30,优,优,优,330900,#00E400,122.4464,#00E400,5,优,0.5,优,#00E400,#00E400,330922001,优,#00E400,舟山市,#00E400,优,7,5,#00E400,10,2026-05-12 17:00:00
13,优,330921,93,30.2669,优,--,11,30,86,优,#00E400,#00E400,5,岱山环保大楼,#00E400,30,优,优,优,330900,#00E400,122.2199,#00E400,12,优,0.4,优,#00E400,#00E400,330921001,优,#00E400,舟山市,#00E400,优,16,8,#00E400,10,2026-05-12 17:00:00
14,优,331125,95,28.1173,优,--,17,6,93,优,#00E400,#00E400,6,云和监测楼,#00E400,30,优,优,优,331100,#00E400,119.5626,#00E400,10,优,0.4,优,#00E400,#00E400,331125001,优,#00E400,丽水市,#00E400,优,15,11,#00E400,10,2026-05-12 17:00:00
15,良,330382,98,28.1209,优,--,15,8,109,优,#00E400,#00E400,5,乐成,#FFFF00,31,优,优,优,330300,#00E400,120.9659,#00E400,4,优,0.4,优,#00E400,#00E400,330382001,优,#00E400,温州市,#00E400,优,12,9,#00E400,16,2026-05-12 17:00:00
16,优,330921,97,30.2517,优,--,14,10,87,优,#00E400,#00E400,7,岱山高亭,#00E400,31,优,优,优,330900,#00E400,122.1958,#00E400,10,优,0.4,优,#00E400,#00E400,330921002,优,#00E400,舟山市,#00E400,优,14,9,#00E400,16,2026-05-12 17:00:00
17,良,331083,97,28.12715,优,--,21,9,102,优,#00E400,#00E400,9,玉环环监站,#FFFF00,31,优,优,优,331000,#00E400,121.2339,#00E400,3,优,0.6,优,#00E400,#00E400,331021001,优,#00E400,台州市,#00E400,优,17,6,#00E400,16,2026-05-12 17:00:00
18,优,330127,101,29.5995,优,--,20,6,95,优,#00E400,#00E400,11,淳安环保大楼,#00E400,32,优,优,优,330100,#00E400,119.0481,#00E400,7,优,0.5,优,#00E400,#00E400,330127001,优,#00E400,杭州市,#00E400,优,9,12,#00E400,19,2026-05-12 17:00:00
19,优,330881,102,28.7282,优,--,48,15,100,优,#00E400,#00E400,12,人民医院,#00E400,32,优,优,优,330800,#00E400,118.6227,#00E400,15,优,0.4,优,#00E400,#00E400,330881002,优,#00E400,衢州市,#00E400,优,26,32,#00E400,19,2026-05-12 17:00:00
20,良,330324,101,28.044335,优,--,33,23,129,优,#00E400,#00E400,6,瓯北,#FFFF00,33,优,优,优,330300,#00E400,120.654963,#00E400,12,优,0.6,优,#00E400,#00E400,330324002,优,#00E400,温州市,#00E400,优,33,16,#00E400,21,2026-05-12 17:00:00
21,优,330824,103,29.1343,优,--,29,6,98,优,#00E400,#00E400,6,开化气象局,#00E400,33,优,优,优,330800,#00E400,118.402,#00E400,14,优,0.4,优,#00E400,#00E400,330824001,优,#00E400,衢州市,#00E400,优,30,17,#00E400,21,2026-05-12 17:00:00
22,良,330382,106,28.0297,优,--,29,11,118,优,#00E400,#00E400,4,柳市,#FFFF00,34,优,优,优,330300,#00E400,120.891,#00E400,5,优,0.4,优,#00E400,#00E400,330382002,优,#00E400,温州市,#00E400,优,13,17,#00E400,23,2026-05-12 17:00:00
23,良,330381,108,27.782284,优,--,22,9,126,优,#00E400,#00E400,11,安阳新区,#FFFF00,34,优,优,优,330300,#00E400,120.650915,#00E400,8,优,0.5,优,#00E400,#00E400,330381002,优,#00E400,温州市,#00E400,优,13,14,#00E400,23,2026-05-12 17:00:00
24,良,330326,108,27.6593,优,--,22,9,127,优,#00E400,#00E400,10,平阳监测站,#FFFF00,34,优,优,优,330300,#00E400,120.5705,#00E400,15,优,0.7,优,#00E400,#00E400,330326001,优,#00E400,温州市,#00E400,优,33,16,#00E400,23,2026-05-12 17:00:00
25,良,330383,107,27.5812,优,--,30,11,122,优,#00E400,#00E400,8,龙港,#FFFF00,34,优,优,优,330300,#00E400,120.5489,#00E400,15,优,0.5,优,#00E400,#00E400,330327002,优,#00E400,温州市,#00E400,优,22,20,#00E400,23,2026-05-12 17:00:00
26,良,331081,107,28.39136,优,--,14,5,106,优,#00E400,#00E400,3,之江高级中学,#FFFF00,34,优,优,优,331000,#00E400,121.37696,#00E400,9,优,0.3,优,#00E400,#00E400,331081002,优,#00E400,台州市,#00E400,优,13,8,#00E400,23,2026-05-12 17:00:00
27,良,330182,110,29.4769,优,--,41,6,112,优,#00E400,#00E400,7,建德监测大楼,#FFFF00,35,优,优,优,330100,#00E400,119.2711,#00E400,9,优,0.6,优,#00E400,#00E400,330182T_2,优,#00E400,杭州市,#00E400,优,23,18,#00E400,28,2026-05-12 17:00:00
28,良,330127,110,29.605,优,--,17,7,103,优,#00E400,#00E400,12,老年活动中心,#FFFF00,35,优,优,优,330100,#00E400,119.0372,#00E400,11,优,0.6,优,#00E400,#00E400,330127T_4,优,#00E400,杭州市,#00E400,优,15,9,#00E400,28,2026-05-12 17:00:00
29,良,330381,109,27.791645,优,--,26,9,122,优,#00E400,#00E400,6,花园桥,#FFFF00,35,优,优,优,330300,#00E400,120.62372,#00E400,8,优,0.2,优,#00E400,#00E400,330381001,优,#00E400,温州市,#00E400,优,15,15,#00E400,28,2026-05-12 17:00:00
30,良,331024,110,28.8589,优,--,36,8,104,优,#00E400,#00E400,8,仙居环监站,#FFFF00,35,优,优,优,331000,#00E400,120.7248,#00E400,15,优,0.5,优,#00E400,#00E400,331024001,优,#00E400,台州市,#00E400,优,27,20,#00E400,28,2026-05-12 17:00:00
31,良,330326,114,27.6653,优,--,22,6,136,优,#00E400,#00E400,7,平阳县政府,#FFFF00,36,优,优,优,330300,#00E400,120.5611,#00E400,17,优,0.6,优,#00E400,#00E400,330326002,优,#00E400,温州市,#00E400,优,32,12,#00E400,32,2026-05-12 17:00:00
32,良,331024,113,28.7403,优,--,24,9,102,优,#00E400,#00E400,6,新生中学,#FFFF00,36,优,优,优,331000,#00E400,120.4728,#00E400,12,优,0.5,优,#00E400,#00E400,331024002,优,#00E400,台州市,#00E400,优,19,17,#00E400,32,2026-05-12 17:00:00
33,良,331022,115,29.11779,优,--,21,10,114,优,#00E400,#00E400,6,三门环监楼,#FFFF00,36,优,优,优,331000,#00E400,121.382189,#00E400,15,优,0.5,优,#00E400,#00E400,331022001,优,#00E400,台州市,#00E400,优,24,14,#00E400,32,2026-05-12 17:00:00
34,优,331125,114,28.1062,优,--,22,7,99,优,#00E400,#00E400,7,云和三中,#00E400,36,优,优,优,331100,#00E400,119.5728,#00E400,15,优,0.4,优,#00E400,#00E400,331125002,优,#00E400,丽水市,#00E400,优,30,9,#00E400,32,2026-05-12 17:00:00
35,良,330383,115,27.5617,优,--,29,13,116,优,#00E400,#00E400,7,龙港实验中学,#FFFF00,36,优,优,优,330300,#00E400,120.5355,#00E400,14,优,0.6,优,#00E400,#00E400,330303101,优,#00E400,温州市,#00E400,优,22,19,#00E400,32,2026-05-12 17:00:00
36,良,330226,117,29.2878,优,--,19,9,118,优,#00E400,#00E400,6,宁海城南站,#FFFF00,37,优,优,优,330200,#00E400,121.4201,#00E400,10,优,0.3,优,#00E400,#00E400,330226002,优,#00E400,宁波市,#00E400,优,20,11,#00E400,37,2026-05-12 17:00:00
37,良,330881,116,28.7465,优,--,44,8,108,优,#00E400,#00E400,6,江山环保大楼,#FFFF00,37,优,优,优,330800,#00E400,118.6301,#00E400,14,优,0.4,优,#00E400,#00E400,330881001,优,#00E400,衢州市,#00E400,优,26,31,#00E400,37,2026-05-12 17:00:00
38,良,331124,117,28.4516,优,--,32,9,106,优,#00E400,#00E400,6,和平水厂,#FFFF00,37,优,优,优,331100,#00E400,119.4699,#00E400,9,优,0.4,优,#00E400,#00E400,331124002,优,#00E400,丽水市,#00E400,优,23,17,#00E400,37,2026-05-12 17:00:00
39,良,330822,115,28.901,优,--,37,15,106,优,#00E400,#00E400,11,常山环保大楼,#FFFF00,38,优,优,优,330800,#00E400,118.5196,#00E400,22,优,0.6,优,#00E400,#00E400,330822001,优,#00E400,衢州市,#00E400,优,38,20,#00E400,40,2026-05-12 17:00:00
40,良,331022,121,29.1028,优,--,23,10,121,优,#00E400,#00E400,6,心湖站,#FFFF00,38,优,优,优,331000,#00E400,121.3918,#00E400,13,优,0.4,优,#00E400,#00E400,331022002,优,#00E400,台州市,#00E400,优,29,12,#00E400,40,2026-05-12 17:00:00
41,良,331124,119,28.4505,优,--,35,13,107,优,#00E400,#00E400,5,松阳监测楼,#FFFF00,38,优,优,优,331100,#00E400,119.4799,#00E400,17,优,0.5,优,#00E400,#00E400,331124001,优,#00E400,丽水市,#00E400,优,23,19,#00E400,40,2026-05-12 17:00:00
42,良,330803,125,28.9844,优,--,42,11,120,优,#00E400,#00E400,8,衢州三中（市）,#FFFF00,40,优,优,优,330800,#00E400,118.9628,#00E400,13,优,0.5,优,#00E400,#00E400,330803704,优,#00E400,衢州市,#00E400,优,25,27,#00E400,43,2026-05-12 17:00:00
43,良,330182,126,29.4638,优,--,30,8,124,优,#00E400,#00E400,5,第二中学,#FFFF00,40,优,优,优,330100,#00E400,119.2821,#00E400,10,优,0.4,优,#00E400,#00E400,330182002,优,#00E400,杭州市,#00E400,优,19,19,#00E400,43,2026-05-12 17:00:00
44,良,330226,125,29.3125,优,--,18,8,123,优,#00E400,#00E400,5,宁海水利局,#FFFF00,40,优,优,优,330200,#00E400,121.4306,#00E400,7,优,0.4,优,#00E400,#00E400,330226001,优,#00E400,宁波市,#00E400,优,12,10,#00E400,43,2026-05-12 17:00:00
45,良,330324,118,28.158269,优,--,28,14,114,优,#00E400,#00E400,6,上塘,#FFFF00,40,优,优,优,330300,#00E400,120.694244,#00E400,20,优,0.4,优,#00E400,#00E400,330324001,优,#00E400,温州市,#00E400,优,40,15,#00E400,43,2026-05-12 17:00:00
46,良,330624,127,29.4938,优,--,25,8,115,优,#00E400,#00E400,5,城东站,#FFFF00,40,优,优,优,330600,#00E400,120.9109,#00E400,12,优,0.5,优,#00E400,#00E400,330624002,优,#00E400,绍兴市,#00E400,优,25,17,#00E400,43,2026-05-12 17:00:00
47,良,330781,128,29.229931,优,--,47,9,116,优,#00E400,#00E400,10,兰溪八中,#FFFF00,40,优,优,优,330700,#00E400,119.475172,#00E400,16,优,0.6,优,#00E400,#00E400,330781002,优,#00E400,金华市,#00E400,优,35,29,#00E400,43,2026-05-12 17:00:00
48,良,330212,126,29.7736,优,--,19,12,141,优,#00E400,#00E400,4,钱湖水厂,#FFFF00,40,优,优,优,330200,#00E400,121.6330,#00E400,15,优,0.5,优,#00E400,#00E400,2013302120001,优,#00E400,宁波市,#00E400,优,20,13,#00E400,43,2026-05-12 17:00:00
49,良,330683,131,29.5663,优,--,20,10,116,优,#00E400,#00E400,5,丽湖小区,#FFFF00,41,优,优,优,330600,#00E400,120.8173,#00E400,17,优,0.5,优,#00E400,#00E400,330683002,优,#00E400,绍兴市,#00E400,优,21,22,#00E400,50,2026-05-12 17:00:00
50,良,330726,131,29.465746,优,--,30,6,121,优,#00E400,#00E400,7,浦江实验中学,#FFFF00,41,优,优,优,330700,#00E400,119.875227,#00E400,19,优,0.6,优,#00E400,#00E400,330726001,优,#00E400,金华市,#00E400,优,26,22,#00E400,50,2026-05-12 17:00:00
51,优,331081,97,28.37558,优,--,15,11,89,优,#00E400,#00E400,5,温岭环监站,#00E400,41,优,优,优,331000,#00E400,121.36579,#00E400,19,优,0.4,优,#00E400,#00E400,331081001,优,#00E400,台州市,#00E400,优,41,12,#00E400,50,2026-05-12 17:00:00
52,良,330483,132,30.625,优,--,48,10,145,优,#00E400,#00E400,7,振东新六中站,#FFFF00,42,优,优,优,330400,#00E400,120.5613,#00E400,21,优,0.5,优,#00E400,#00E400,330483002,优,#00E400,嘉兴市,#00E400,优,28,25,#00E400,53,2026-05-12 17:00:00
53,良,330683,134,29.5901,优,--,28,7,124,优,#00E400,#00E400,5,马寅初初中,#FFFF00,42,优,优,优,330600,#00E400,120.8249,#00E400,9,优,0.4,优,#00E400,#00E400,330683001,优,#00E400,绍兴市,#00E400,优,15,16,#00E400,53,2026-05-12 17:00:00
54,良,330781,134,29.216166,优,--,50,16,122,优,#00E400,#00E400,8,兰溪监测站,#FFFF00,42,优,优,优,330700,#00E400,119.459992,#00E400,19,优,0.7,优,#00E400,#00E400,330781001,优,#00E400,金华市,#00E400,优,26,31,#00E400,53,2026-05-12 17:00:00
55,良,331082,134,28.873,优,--,24,13,129,优,#00E400,#00E400,6,临海环保大楼,#FFFF00,42,优,优,优,331000,#00E400,121.1769,#00E400,21,优,0.5,优,#00E400,#00E400,331082001,优,#00E400,台州市,#00E400,优,28,14,#00E400,53,2026-05-12 17:00:00
56,良,331082,133,28.84326,优,--,30,14,128,优,#00E400,#00E400,5,巾山实验小学,#FFFF00,42,优,优,优,331000,#00E400,121.136,#00E400,15,优,0.5,优,#00E400,#00E400,331082002,优,#00E400,台州市,#00E400,优,30,17,#00E400,53,2026-05-12 17:00:00
57,良,330122,138,29.7955,优,--,33,8,123,优,#00E400,#00E400,7,桐庐江南,#FFFF00,44,优,优,优,330100,#00E400,119.6874,#00E400,16,优,0.5,优,#00E400,#00E400,330122001,优,#00E400,杭州市,#00E400,优,24,21,#00E400,58,2026-05-12 17:00:00
58,良,330681,140,29.6818,优,--,37,8,135,优,#00E400,#00E400,7,杨树畈,#FFFF00,44,优,优,优,330600,#00E400,120.2359,#00E400,19,优,0.3,优,#00E400,#00E400,330681001,优,#00E400,绍兴市,#00E400,优,25,24,#00E400,58,2026-05-12 17:00:00
59,良,331023,139,29.1504,优,--,23,11,120,优,#00E400,#00E400,6,育青中学,#FFFF00,44,优,优,优,331000,#00E400,121.0091,#00E400,20,优,0.5,优,#00E400,#00E400,331023001,优,#00E400,台州市,#00E400,优,34,13,#00E400,58,2026-05-12 17:00:00
60,良,331023,140,29.1342,优,--,26,13,121,优,#00E400,#00E400,6,天台实验中学,#FFFF00,44,优,优,优,331000,#00E400,121.0349,#00E400,22,优,0.5,优,#00E400,#00E400,331023002,优,#00E400,台州市,#00E400,优,35,13,#00E400,58,2026-05-12 17:00:00
61,良,331122,138,28.6628,优,--,43,16,111,优,#00E400,#00E400,7,信访大楼,#FFFF00,44,优,优,优,331100,#00E400,120.0856,#00E400,19,优,0.6,优,#00E400,#00E400,331122002,优,#00E400,丽水市,#00E400,优,33,25,#00E400,58,2026-05-12 17:00:00
62,良,330483,142,30.6488,优,--,39,10,154,优,#00E400,#00E400,6,茅盾小学,#FFFF00,45,优,优,优,330400,#00E400,120.5498,#00E400,18,优,0.5,优,#00E400,#00E400,330483001,优,#00E400,嘉兴市,#00E400,优,38,24,#00E400,63,2026-05-12 17:00:00
63,良,330624,144,29.5036,优,--,27,7,132,优,#00E400,#00E400,5,钟楼站,#FFFF00,45,优,优,优,330600,#00E400,120.8938,#00E400,14,优,0.5,优,#00E400,#00E400,330624001,优,#00E400,绍兴市,#00E400,优,22,16,#00E400,63,2026-05-12 17:00:00
64,良,330825,141,29.0392,优,--,38,14,132,优,#00E400,#00E400,7,建设大楼,#FFFF00,45,优,优,优,330800,#00E400,119.1675,#00E400,22,优,0.3,优,#00E400,#00E400,330825001,优,#00E400,衢州市,#00E400,优,36,25,#00E400,63,2026-05-12 17:00:00
65,良,330784,146,28.90016,优,--,65,13,137,优,#00E400,#00E400,8,西城供电所,#FFFF00,46,优,优,良,330700,#00E400,120.01452,#00E400,17,优,0.3,优,#00E400,#00E400,330784002,优,#00E400,金华市,#00E400,优,38,33,#FFFF00,66,2026-05-12 17:00:00
66,良,330825,147,29.0464,优,--,41,12,129,优,#00E400,#00E400,6,龙游二高,#FFFF00,46,优,优,优,330800,#00E400,119.204,#00E400,16,优,0.4,优,#00E400,#00E400,330825002,优,#00E400,衢州市,#00E400,优,27,25,#00E400,66,2026-05-12 17:00:00
67,良,331122,115,28.6574,优,--,37,43,110,优,#00E400,#00E400,8,缙云中学,#FFFF00,46,优,优,优,331100,#00E400,120.0696,#00E400,24,优,0.6,优,#00E400,#00E400,331122001,优,#00E400,丽水市,#00E400,优,46,23,#00E400,66,2026-05-12 17:00:00
68,良,330723,147,28.9178,优,--,34,15,140,优,#00E400,#00E400,8,武义北岭幼儿园,#FFFF00,46,优,优,优,330700,#00E400,119.8022,#00E400,19,优,0.5,优,#00E400,#00E400,330723003,优,#00E400,金华市,#00E400,优,28,25,#00E400,66,2026-05-12 17:00:00
69,良,330483,147,30.6355,优,--,38,8,160,优,#00E400,#00E400,10,文化中心,#FFFF00,46,优,优,优,330400,#00E400,120.5795,#00E400,20,优,0.6,优,#00E400,#00E400,330483003,优,#00E400,嘉兴市,#00E400,优,34,23,#00E400,66,2026-05-12 17:00:00
70,良,330723,150,28.896108,优,--,35,12,137,优,#00E400,#00E400,10,武义县政府,#FFFF00,47,优,优,优,330700,#00E400,119.811352,#00E400,20,优,0.5,优,#00E400,#00E400,330723001,优,#00E400,金华市,#00E400,优,30,22,#00E400,71,2026-05-12 17:00:00
71,良,330822,116,28.9012,优,--,34,12,106,优,#00E400,#00E400,10,图书馆大楼,#FFFF00,47,优,优,优,330800,#00E400,118.5062,#00E400,26,优,0.3,优,#00E400,#00E400,330822002,优,#00E400,衢州市,#00E400,优,47,19,#00E400,71,2026-05-12 17:00:00
72,良,330122,151,29.8058,优,--,35,5,130,优,#00E400,#00E400,5,桐庐江北,#FFFF00,48,优,优,优,330100,#00E400,119.669,#00E400,18,优,0.7,优,#00E400,#00E400,330122002,优,#00E400,杭州市,#00E400,优,26,22,#00E400,73,2026-05-12 17:00:00
73,良,330783,152,29.27739,优,--,46,10,148,优,#00E400,#00E400,7,东阳环保大楼,#FFFF00,48,优,优,优,330700,#00E400,120.23692,#00E400,17,优,0.6,优,#00E400,#00E400,330783002,优,#00E400,金华市,#00E400,优,25,27,#00E400,73,2026-05-12 17:00:00
74,良,330327,119,27.522222,优,--,29,14,134,优,#00E400,#00E400,10,苍南中学,#FFFF00,49,优,优,优,330300,#00E400,120.416111,#00E400,31,优,0.6,优,#00E400,#00E400,330327004,优,#00E400,温州市,#00E400,优,49,19,#00E400,75,2026-05-12 17:00:00
75,良,331121,154,28.1341,优,--,38,12,106,优,#00E400,#00E400,6,塔山小学,#FFFF00,49,优,优,优,331100,#00E400,120.2936,#00E400,21,优,0.6,优,#00E400,#00E400,331121001,优,#00E400,丽水市,#00E400,优,35,23,#00E400,75,2026-05-12 17:00:00
76,良,330681,157,29.7257,优,--,40,8,156,优,#00E400,#00E400,8,城新小学,#FFFF00,50,优,优,优,330600,#00E400,120.272,#00E400,15,优,0.3,优,#00E400,#00E400,330681505,优,#00E400,绍兴市,#00E400,优,21,25,#00E400,77,2026-05-12 17:00:00
77,轻度污染,330681,159,29.726389,优,--,38,3,163,优,#00E400,#00E400,8,青少年宫,#FF7E00,50,优,优,优,330600,#00E400,120.199722,#00E400,22,优,0.4,优,#00E400,#00E400,330681002,优,#00E400,绍兴市,#00E400,优,23,25,#00E400,77,2026-05-12 17:00:00
78,良,330327,115,27.503889,优,PM₁₀,30,13,119,优,#FFFF00,#00E400,11,灵溪,#FFFF00,51,优,良,优,330300,#00E400,120.395278,#00E400,27,良,0.5,优,#00E400,#00E400,330327001,优,#FFFF00,温州市,#00E400,优,51,16,#00E400,79,2026-05-12 17:00:00
79,良,330213,161,29.6506,优,O₃,26,12,143,良,#00E400,#00E400,9,奉化教育局,#FFFF00,52,优,良,优,330200,#00E400,121.4042,#00E400,23,优,0.4,优,#00E400,#00E400,330283005,优,#FFFF00,宁波市,#FFFF00,优,38,15,#00E400,80,2026-05-12 17:00:00
80,良,330328,156,27.804722,优,PM₁₀,31,10,114,优,#FFFF00,#00E400,8,文成中学,#FFFF00,52,优,良,优,330300,#00E400,120.077222,#00E400,20,良,0.5,优,#00E400,#00E400,330328002,优,#FFFF00,温州市,#00E400,优,52,12,#00E400,80,2026-05-12 17:00:00
81,良,330213,162,29.6774,优,O₃,25,14,148,良,#00E400,#00E400,5,大桥市场,#FFFF00,53,优,良,优,330200,#00E400,121.4237,#00E400,20,优,0.4,优,#00E400,#00E400,330213001,优,#FFFF00,宁波市,#FFFF00,优,32,14,#00E400,82,2026-05-12 17:00:00
82,良,330328,163,27.7838,优,O₃,30,11,114,良,#00E400,#00E400,9,大峃,#FFFF00,54,优,良,优,330300,#00E400,120.085,#00E400,24,优,0.4,优,#00E400,#00E400,330328001,优,#FFFF00,温州市,#FFFF00,优,40,18,#00E400,83,2026-05-12 17:00:00
83,轻度污染,330483,165,30.7369,优,O₃,38,7,186,良,#00E400,#00E400,8,植材小学,#FF7E00,57,优,良,优,330400,#00E400,120.4902,#00E400,16,优,0.6,优,#00E400,#00E400,330483509,优,#FFFF00,嘉兴市,#FFFF00,优,28,26,#00E400,84,2026-05-12 17:00:00
84,良,330727,167,29.051486,优,O₃,32,12,139,良,#00E400,#00E400,8,国税大楼,#FFFF00,59,优,良,优,330700,#00E400,120.438346,#00E400,28,优,0.5,优,#00E400,#00E400,330727002,优,#FFFF00,金华市,#FFFF00,优,40,20,#00E400,85,2026-05-12 17:00:00
85,良,330784,167,28.8854,优,O₃,55,15,149,良,#00E400,#00E400,7,永康一中,#FFFF00,59,优,良,良,330700,#00E400,120.0439,#00E400,18,优,0.7,优,#00E400,#00E400,330784001,优,#FFFF00,金华市,#FFFF00,优,32,27,#FFFF00,85,2026-05-12 17:00:00
86,轻度污染,330782,167,29.3686,优,O₃,56,11,163,良,#00E400,#00E400,8,第五中学,#FF7E00,59,优,良,良,330700,#00E400,120.1345,#00E400,15,优,0.5,优,#00E400,#00E400,330782003,优,#FFFF00,金华市,#FFFF00,优,24,27,#FFFF00,85,2026-05-12 17:00:00
87,良,330727,168,29.039869,优,O₃,30,9,134,良,#00E400,#00E400,8,南园初中,#FFFF00,60,优,良,优,330700,#00E400,120.440622,#00E400,27,优,0.5,优,#00E400,#00E400,330727003,优,#FFFF00,金华市,#FFFF00,优,35,20,#00E400,88,2026-05-12 17:00:00
88,轻度污染,330481,174,30.5261,优,O₃,46,7,161,良,#00E400,#00E400,7,海宁监测大楼,#FF7E00,68,优,良,优,330400,#00E400,120.6739,#00E400,30,优,0.4,优,#00E400,#00E400,330481001,优,#FFFF00,嘉兴市,#FFFF00,优,43,27,#00E400,89,2026-05-12 17:00:00
89,轻度污染,330522,178,31.0263,优,O₃,45,12,172,良,#00E400,#00E400,8,龙山新区,#FF7E00,73,优,良,优,330500,#00E400,119.9046,#00E400,26,优,0.6,优,#00E400,#00E400,330522002,优,#FFFF00,湖州市,#FFFF00,优,37,29,#00E400,90,2026-05-12 17:00:00
90,轻度污染,330424,179,30.5042,优,O₃,39,18,161,良,#00E400,#00E400,7,高级中学,#FF7E00,74,优,良,优,330400,#00E400,120.9413,#00E400,34,优,0.5,优,#00E400,#00E400,330424001,优,#FFFF00,嘉兴市,#FFFF00,优,47,25,#00E400,91,2026-05-12 17:00:00
91,轻度污染,330110,180,30.2635,优,O₃,29,13,162,良,#00E400,#00E400,8,海辰小学,#FF7E00,75,优,良,优,330100,#00E400,119.9842,#00E400,15,优,0.4,优,#00E400,#00E400,2013301100001,优,#FFFF00,杭州市,#FFFF00,优,32,17,#00E400,92,2026-05-12 17:00:00
92,轻度污染,330783,182,29.30093,优,O₃,50,12,172,良,#00E400,#00E400,7,广厦学院,#FF7E00,78,优,良,优,330700,#00E400,120.24157,#00E400,24,优,0.6,优,#00E400,#00E400,330783001,优,#FFFF00,金华市,#FFFF00,优,30,24,#00E400,93,2026-05-12 17:00:00
93,轻度污染,330481,184,30.5137,优,O₃,44,10,162,良,#00E400,#00E400,9,硖石街道,#FF7E00,80,优,良,优,330400,#00E400,120.7082,#00E400,27,优,0.6,优,#00E400,#00E400,330481002,优,#FFFF00,嘉兴市,#FFFF00,优,49,24,#00E400,94,2026-05-12 17:00:00
94,良,330523,188,30.5974,优,O₃,22,8,156,良,#00E400,#FFFF00,6,安吉城东,#FFFF00,85,优,良,优,330500,#00E400,119.6953,#00E400,39,优,0.5,良,#00E400,#00E400,330523002,优,#FFFF00,湖州市,#FFFF00,优,44,17,#00E400,95,2026-05-12 17:00:00
95,良,330726,188,29.439787,优,O₃,36,9,148,良,#00E400,#00E400,4,浦江中学,#FFFF00,85,优,良,优,330700,#00E400,119.924638,#00E400,26,优,0.5,优,#00E400,#00E400,330726002,优,#FFFF00,金华市,#FFFF00,优,36,24,#00E400,95,2026-05-12 17:00:00
96,良,330213,189,29.693,优,O₃,26,13,144,良,#00E400,#00E400,6,溪口政府大楼,#FFFF00,87,优,良,优,330200,#00E400,121.2774,#00E400,28,优,0.4,优,#00E400,#00E400,330283T_1,优,#FFFF00,宁波市,#FFFF00,优,41,17,#00E400,97,2026-05-12 17:00:00
97,轻度污染,330482,189,30.6937,优,O₃,35,25,176,良,#FFFF00,#FFFF00,10,平湖幼儿园,#FF7E00,87,优,良,优,330400,#00E400,121.0259,#00E400,38,良,0.6,良,#00E400,#00E400,330482001,优,#FFFF00,嘉兴市,#FFFF00,优,60,22,#00E400,97,2026-05-12 17:00:00
98,轻度污染,330482,192,30.7292,优,O₃,32,27,166,良,#FFFF00,#FFFF00,11,陆家桥村,#FF7E00,90,优,良,优,330400,#00E400,120.9953,#00E400,37,良,0.8,良,#00E400,#00E400,330482002,优,#FFFF00,嘉兴市,#FFFF00,优,61,22,#00E400,99,2026-05-12 17:00:00
99,轻度污染,330782,192,29.335473,优,O₃,51,17,171,良,#00E400,#00E400,6,北苑,#FF7E00,90,优,良,良,330700,#00E400,120.078609,#00E400,21,优,0.5,优,#00E400,#00E400,330782001,优,#FFFF00,金华市,#FFFF00,优,33,30,#FFFF00,99,2026-05-12 17:00:00
100,轻度污染,330481,192,30.5524,优,O₃,45,6,178,良,#00E400,#00E400,8,胜利社区,#FF7E00,90,优,良,优,330400,#00E400,120.6713,#00E400,24,优,0.6,优,#00E400,#00E400,330481003,优,#FFFF00,嘉兴市,#FFFF00,优,40,23,#00E400,99,2026-05-12 17:00:00
101,轻度污染,330421,193,30.836,优,O₃,37,13,163,良,#00E400,#00E400,7,嘉善监测大楼,#FF7E00,92,优,良,优,330400,#00E400,120.9226,#00E400,32,优,0.6,优,#00E400,#00E400,330421001,优,#FFFF00,嘉兴市,#FFFF00,优,49,23,#00E400,102,2026-05-12 17:00:00
102,轻度污染,330522,193,31.0143,优,O₃,48,14,191,良,#00E400,#00E400,6,职教中心,#FF7E00,92,优,良,优,330500,#00E400,119.8935,#00E400,27,优,0.5,优,#00E400,#00E400,330522001,优,#FFFF00,湖州市,#FFFF00,优,40,30,#00E400,102,2026-05-12 17:00:00
103,良,331121,193,28.1094,优,O₃,36,20,117,良,#00E400,#00E400,5,青田中学,#FFFF00,92,优,良,优,331100,#00E400,120.3161,#00E400,25,优,0.5,优,#00E400,#00E400,331121002,优,#FFFF00,丽水市,#FFFF00,优,46,22,#00E400,102,2026-05-12 17:00:00
104,轻度污染,330282,194,30.1636,优,O₃,36,20,174,良,#FFFF00,#00E400,6,慈溪环保大楼,#FF7E00,93,优,良,优,330200,#00E400,121.2677,#00E400,31,良,0.7,优,#00E400,#00E400,330282001,优,#FFFF00,宁波市,#FFFF00,优,53,19,#00E400,105,2026-05-12 17:00:00
105,轻度污染,330424,194,30.5299,优,O₃,38,13,172,良,#FFFF00,#FFFF00,7,海盐商贸学校,#FF7E00,93,优,良,优,330400,#00E400,120.9293,#00E400,44,良,0.6,良,#00E400,#00E400,330424002,优,#FFFF00,嘉兴市,#FFFF00,优,58,28,#00E400,105,2026-05-12 17:00:00
106,轻度污染,330523,195,30.6422,优,O₃,42,14,169,良,#FFFF00,#00E400,9,安吉实验小学,#FF7E00,94,优,良,优,330500,#00E400,119.6768,#00E400,32,良,0.5,优,#00E400,#00E400,330523001,优,#FFFF00,湖州市,#FFFF00,优,76,21,#00E400,107,2026-05-12 17:00:00
107,轻度污染,330282,201,30.1786,优,O₃,36,13,172,轻度污染,#FFFF00,#00E400,6,慈溪实验小学,#FF7E00,101,优,轻度污染,优,330200,#00E400,121.2525,#00E400,30,良,0.6,优,#00E400,#00E400,330282002,优,#FF7E00,宁波市,#FF7E00,优,54,20,#00E400,108,2026-05-12 17:00:00
108,良,330782,201,29.305096,优,O₃,46,13,158,轻度污染,#00E400,#00E400,7,江东,#FFFF00,101,优,轻度污染,优,330700,#00E400,120.090442,#00E400,24,优,0.6,优,#00E400,#00E400,330782002,优,#FF7E00,金华市,#FF7E00,优,41,25,#00E400,108,2026-05-12 17:00:00
109,良,330782,202,29.2637,优,O₃,54,16,160,轻度污染,#00E400,#00E400,7,儿童公园,#FFFF00,101,优,轻度污染,良,330700,#00E400,120.0321,#00E400,25,优,0.5,优,#00E400,#00E400,330782004,优,#FF7E00,金华市,#FF7E00,优,48,28,#FFFF00,108,2026-05-12 17:00:00
110,良,330281,203,30.0358,优,O₃,25,21,154,轻度污染,#00E400,#00E400,6,姚江小学,#FFFF00,102,优,轻度污染,优,330200,#00E400,121.1221,#00E400,22,优,0.5,优,#00E400,#00E400,330281002,优,#FF7E00,宁波市,#FF7E00,优,41,17,#00E400,111,2026-05-12 17:00:00
111,良,330281,206,30.0497,优,O₃,29,17,144,轻度污染,#00E400,#00E400,6,龙山公园,#FFFF00,103,优,轻度污染,优,330200,#00E400,121.1475,#00E400,31,优,0.5,优,#00E400,#00E400,330281001,优,#FF7E00,宁波市,#FF7E00,优,45,19,#00E400,112,2026-05-12 17:00:00
112,轻度污染,330521,207,30.5231,优,O₃,41,11,177,轻度污染,#FFFF00,#00E400,9,地信科创园,#FF7E00,104,优,轻度污染,优,330500,#00E400,119.9781,#00E400,28,良,0.6,优,#00E400,#00E400,330521001,优,#FF7E00,湖州市,#FF7E00,优,53,25,#00E400,113,2026-05-12 17:00:00
113,轻度污染,330521,218,30.548493,优,O₃,43,12,188,轻度污染,#FFFF00,#FFFF00,9,春晖小学,#FF7E00,109,优,轻度污染,优,330500,#00E400,119.9505,#00E400,37,良,0.6,良,#00E400,#00E400,330521003,优,#FF7E00,湖州市,#FF7E00,优,56,28,#00E400,114,2026-05-12 17:00:00
114,轻度污染,330421,223,30.8307,优,O₃,32,23,180,轻度污染,#FFFF00,#FFFF00,9,气象观测台,#FF7E00,112,优,轻度污染,优,330400,#00E400,120.9356,#00E400,47,良,0.7,良,#00E400,#00E400,330421002,优,#FF7E00,嘉兴市,#FF7E00,优,62,21,#00E400,115,2026-05-12 17:00:00
115,良,331083,90,28.2221,优,--,18,11,105,优,--,#00E400,5,楚门中心小学,#FFFF00,--,优,--,优,331000,#00E400,121.2846,#00E400,10,--,0.6,优,#00E400,#00E400,331021002,优,--,台州市,#00E400,优,--,11,#00E400,116,2026-05-12 17:00:00
116,优,331181,86,28.076,优,--,22,9,98,优,#00E400,#00E400,--,粮食大楼,#00E400,--,优,--,优,331100,--,119.1217,#00E400,10,优,0.5,优,#00E400,#00E400,331181002,优,--,丽水市,#00E400,--,20,13,#00E400,116,2026-05-12 17:00:00
117,优,331127,89,27.9772,优,--,17,10,85,优,--,--,3,景宁县政府,#00E400,--,优,--,优,331100,#00E400,119.6311,#00E400,--,--,0.4,--,#00E400,#00E400,331127002,优,--,丽水市,#00E400,优,--,11,#00E400,116,2026-05-12 17:00:00
