,O3H8_level,regioncode,O3,latitude,CO_level,SYWRW,PM10H24,NO2,O3H8,O3_level,PM10_color,PM25_color,SO2,sitename,O3H8_color,AQI,NO2_level,AQI_level,PM10H24_level,districtcode,SO2_color,longitude,NO2_color,PM25,PM10_level,CO,PM25_level,CO_color,PM25H24_color,sitecode,PM25H24_level,AQI_color,districtname,O3_color,SO2_level,PM10,PM25H24,PM10H24_color,sort,time
0,优,331126,68,27.629585,优,--,18,5,39,优,#00E400,#00E400,4,庆元监测楼,#00E400,22,优,优,优,331100,#00E400,119.054809,#00E400,4,优,0.5,优,#00E400,#00E400,331126001,优,#00E400,丽水市,#00E400,优,12,9,#00E400,1,2026-06-08 12:00:00
1,优,330328,73,27.804722,优,--,15,10,63,优,#00E400,#00E400,7,文成中学,#00E400,23,优,优,优,330300,#00E400,120.077222,#00E400,4,优,0.4,优,#00E400,#00E400,330328002,优,#00E400,温州市,#00E400,优,6,8,#00E400,2,2026-06-08 12:00:00
2,优,330783,70,29.30093,优,--,34,19,73,优,#00E400,#00E400,6,广厦学院,#00E400,23,优,优,优,330700,#00E400,120.24157,#00E400,16,优,0.6,优,#00E400,#00E400,330783001,优,#00E400,金华市,#00E400,优,22,20,#00E400,2,2026-06-08 12:00:00
3,优,330803,71,28.9844,优,--,44,11,78,优,#00E400,#00E400,7,衢州三中（市）,#00E400,24,优,优,优,330800,#00E400,118.9628,#00E400,13,优,0.5,优,#00E400,#00E400,330803704,优,#00E400,衢州市,#00E400,优,24,27,#00E400,4,2026-06-08 12:00:00
4,优,330329,76,27.5438,优,--,7,5,78,优,#00E400,#00E400,6,泰顺实验中学,#00E400,24,优,优,优,330300,#00E400,119.716111,#00E400,1,优,0.4,优,#00E400,#00E400,330329002,优,#00E400,温州市,#00E400,优,2,6,#00E400,4,2026-06-08 12:00:00
5,优,331126,76,27.6211,优,--,11,4,52,优,#00E400,#00E400,5,庆元气象局,#00E400,24,优,优,优,331100,#00E400,119.0788,#00E400,2,优,0.7,优,#00E400,#00E400,331126002,优,#00E400,丽水市,#00E400,优,5,7,#00E400,4,2026-06-08 12:00:00
6,优,330328,79,27.7838,优,--,12,4,66,优,#00E400,#00E400,5,大峃,#00E400,25,优,优,优,330300,#00E400,120.085,#00E400,3,优,0.4,优,#00E400,#00E400,330328001,优,#00E400,温州市,#00E400,优,3,9,#00E400,7,2026-06-08 12:00:00
7,优,331081,76,28.37558,优,--,21,16,76,优,#00E400,#00E400,5,温岭环监站,#00E400,25,优,优,优,331000,#00E400,121.36579,#00E400,17,优,0.5,优,#00E400,#00E400,331081001,优,#00E400,台州市,#00E400,优,20,17,#00E400,7,2026-06-08 12:00:00
8,优,330782,83,29.305096,优,--,31,18,75,优,#00E400,#00E400,5,江东,#00E400,26,优,优,优,330700,#00E400,120.090442,#00E400,10,优,0.5,优,#00E400,#00E400,330782002,优,#00E400,金华市,#00E400,优,12,20,#00E400,9,2026-06-08 12:00:00
9,优,331023,82,29.1504,优,--,23,10,90,优,#00E400,#00E400,5,育青中学,#00E400,26,优,优,优,331000,#00E400,121.0091,#00E400,8,优,0.6,优,#00E400,#00E400,331023001,优,#00E400,台州市,#00E400,优,15,14,#00E400,9,2026-06-08 12:00:00
10,优,330213,86,29.6506,优,--,28,14,76,优,#00E400,#00E400,6,奉化教育局,#00E400,27,优,优,优,330200,#00E400,121.4042,#00E400,14,优,0.5,优,#00E400,#00E400,330283005,优,#00E400,宁波市,#00E400,优,17,17,#00E400,11,2026-06-08 12:00:00
11,优,330329,85,27.557,优,--,12,7,85,优,#00E400,#00E400,5,罗阳,#00E400,27,优,优,优,330300,#00E400,119.7084,#00E400,4,优,0.5,优,#00E400,#00E400,330329001,优,#00E400,温州市,#00E400,优,8,6,#00E400,11,2026-06-08 12:00:00
12,优,330782,86,29.2637,优,--,37,16,77,优,#00E400,#00E400,6,儿童公园,#00E400,27,优,优,优,330700,#00E400,120.0321,#00E400,10,优,0.3,优,#00E400,#00E400,330782004,优,#00E400,金华市,#00E400,优,17,23,#00E400,11,2026-06-08 12:00:00
13,优,330213,89,29.693,优,--,26,9,55,优,#00E400,#00E400,5,溪口政府大楼,#00E400,28,优,优,优,330200,#00E400,121.2774,#00E400,14,优,0.3,优,#00E400,#00E400,330283T_1,优,#00E400,宁波市,#00E400,优,25,16,#00E400,14,2026-06-08 12:00:00
14,优,330213,87,29.6774,优,--,32,24,79,优,#00E400,#00E400,5,大桥市场,#00E400,28,优,优,优,330200,#00E400,121.4237,#00E400,14,优,0.6,优,#00E400,#00E400,330213001,优,#00E400,宁波市,#00E400,优,24,20,#00E400,14,2026-06-08 12:00:00
15,优,330382,89,28.0297,优,--,22,15,86,优,#00E400,#00E400,4,柳市,#00E400,28,优,优,优,330300,#00E400,120.891,#00E400,5,优,0.5,优,#00E400,#00E400,330382002,优,#00E400,温州市,#00E400,优,7,13,#00E400,14,2026-06-08 12:00:00
16,优,330381,89,27.791645,优,--,16,11,75,优,#00E400,#00E400,6,花园桥,#00E400,28,优,优,优,330300,#00E400,120.62372,#00E400,3,优,0.5,优,#00E400,#00E400,330381001,优,#00E400,温州市,#00E400,优,6,12,#00E400,14,2026-06-08 12:00:00
17,优,330324,88,28.044335,优,--,18,17,80,优,#00E400,#00E400,6,瓯北,#00E400,28,优,优,优,330300,#00E400,120.654963,#00E400,4,优,0.5,优,#00E400,#00E400,330324002,优,#00E400,温州市,#00E400,优,11,9,#00E400,14,2026-06-08 12:00:00
18,优,330327,89,27.522222,优,--,25,10,85,优,#00E400,#00E400,8,苍南中学,#00E400,28,优,优,优,330300,#00E400,120.416111,#00E400,7,优,0.6,优,#00E400,#00E400,330327004,优,#00E400,温州市,#00E400,优,10,17,#00E400,14,2026-06-08 12:00:00
19,优,330624,65,29.4938,优,--,30,22,71,优,#00E400,#00E400,5,城东站,#00E400,28,优,优,优,330600,#00E400,120.9109,#00E400,18,优,0.5,优,#00E400,#00E400,330624002,优,#00E400,绍兴市,#00E400,优,28,20,#00E400,14,2026-06-08 12:00:00
20,优,330727,89,29.051486,优,--,23,11,91,优,#00E400,#00E400,8,国税大楼,#00E400,28,优,优,优,330700,#00E400,120.438346,#00E400,7,优,0.4,优,#00E400,#00E400,330727002,优,#00E400,金华市,#00E400,优,15,17,#00E400,14,2026-06-08 12:00:00
21,优,330822,87,28.901,优,--,31,12,93,优,#00E400,#00E400,5,常山环保大楼,#00E400,28,优,优,优,330800,#00E400,118.5196,#00E400,2,优,0.5,优,#00E400,#00E400,330822001,优,#00E400,衢州市,#00E400,优,3,18,#00E400,14,2026-06-08 12:00:00
22,优,330783,91,29.27739,优,--,29,14,83,优,#00E400,#00E400,7,东阳环保大楼,#00E400,29,优,优,优,330700,#00E400,120.23692,#00E400,11,优,0.4,优,#00E400,#00E400,330783002,优,#00E400,金华市,#00E400,优,15,21,#00E400,23,2026-06-08 12:00:00
23,优,330822,90,28.9012,优,--,35,12,95,优,#00E400,#00E400,5,图书馆大楼,#00E400,29,优,优,优,330800,#00E400,118.5062,#00E400,15,优,0.3,优,#00E400,#00E400,330822002,优,#00E400,衢州市,#00E400,优,27,22,#00E400,23,2026-06-08 12:00:00
24,优,330881,91,28.7282,优,--,32,12,99,优,#00E400,#00E400,6,人民医院,#00E400,29,优,优,优,330800,#00E400,118.6227,#00E400,17,优,0.5,优,#00E400,#00E400,330881002,优,#00E400,衢州市,#00E400,优,25,29,#00E400,23,2026-06-08 12:00:00
25,优,330825,91,29.0464,优,--,46,11,94,优,#00E400,#00E400,6,龙游二高,#00E400,29,优,优,优,330800,#00E400,119.204,#00E400,15,优,0.4,优,#00E400,#00E400,330825002,优,#00E400,衢州市,#00E400,优,29,21,#00E400,23,2026-06-08 12:00:00
26,优,331083,91,28.12715,优,--,17,7,86,优,#00E400,#00E400,10,玉环环监站,#00E400,29,优,优,优,331000,#00E400,121.2339,#00E400,10,优,0.6,优,#00E400,#00E400,331021001,优,#00E400,台州市,#00E400,优,13,11,#00E400,23,2026-06-08 12:00:00
27,优,331023,92,29.1342,优,--,23,10,98,优,#00E400,#00E400,6,天台实验中学,#00E400,29,优,优,优,331000,#00E400,121.0349,#00E400,10,优,0.5,优,#00E400,#00E400,331023002,优,#00E400,台州市,#00E400,优,15,14,#00E400,23,2026-06-08 12:00:00
28,优,331081,91,28.39136,优,--,19,11,92,优,#00E400,#00E400,3,之江高级中学,#00E400,29,优,优,优,331000,#00E400,121.37696,#00E400,11,优,0.5,优,#00E400,#00E400,331081002,优,#00E400,台州市,#00E400,优,16,12,#00E400,23,2026-06-08 12:00:00
29,优,331121,91,28.1094,优,--,12,11,66,优,#00E400,#00E400,5,青田中学,#00E400,29,优,优,优,331100,#00E400,120.3161,#00E400,4,优,0.4,优,#00E400,#00E400,331121002,优,#00E400,丽水市,#00E400,优,6,6,#00E400,23,2026-06-08 12:00:00
30,优,331122,92,28.6628,优,--,31,12,99,优,#00E400,#00E400,7,信访大楼,#00E400,29,优,优,优,331100,#00E400,120.0856,#00E400,11,优,0.4,优,#00E400,#00E400,331122002,优,#00E400,丽水市,#00E400,优,16,21,#00E400,23,2026-06-08 12:00:00
31,优,330305,96,27.8342,优,--,18,8,95,优,#00E400,#00E400,7,洞头气象局,#00E400,30,优,优,优,330300,#00E400,121.1502,#00E400,8,优,0.5,优,#00E400,#00E400,330305001,优,#00E400,温州市,#00E400,优,15,10,#00E400,32,2026-06-08 12:00:00
32,优,330382,96,28.1209,优,--,15,5,91,优,#00E400,#00E400,5,乐成,#00E400,30,优,优,优,330300,#00E400,120.9659,#00E400,3,优,0.6,优,#00E400,#00E400,330382001,优,#00E400,温州市,#00E400,优,5,10,#00E400,32,2026-06-08 12:00:00
33,优,330381,94,27.782284,优,--,16,14,80,优,#00E400,#00E400,8,安阳新区,#00E400,30,优,优,优,330300,#00E400,120.650915,#00E400,5,优,0.6,优,#00E400,#00E400,330381002,优,#00E400,温州市,#00E400,优,9,23,#00E400,32,2026-06-08 12:00:00
34,优,330326,94,27.6653,优,--,20,9,81,优,#00E400,#00E400,7,平阳县政府,#00E400,30,优,优,优,330300,#00E400,120.5611,#00E400,5,优,0.5,优,#00E400,#00E400,330326002,优,#00E400,温州市,#00E400,优,10,13,#00E400,32,2026-06-08 12:00:00
35,优,330781,94,29.229931,优,--,32,7,78,优,#00E400,#00E400,7,兰溪八中,#00E400,30,优,优,优,330700,#00E400,119.475172,#00E400,11,优,0.4,优,#00E400,#00E400,330781002,优,#00E400,金华市,#00E400,优,15,20,#00E400,32,2026-06-08 12:00:00
36,优,330784,96,28.90016,优,--,34,5,91,优,#00E400,#00E400,8,西城供电所,#00E400,30,优,优,优,330700,#00E400,120.01452,#00E400,7,优,0.3,优,#00E400,#00E400,330784002,优,#00E400,金华市,#00E400,优,19,20,#00E400,32,2026-06-08 12:00:00
37,优,331024,95,28.8589,优,--,22,9,99,优,#00E400,#00E400,8,仙居环监站,#00E400,30,优,优,优,331000,#00E400,120.7248,#00E400,8,优,0.4,优,#00E400,#00E400,331024001,优,#00E400,台州市,#00E400,优,18,13,#00E400,32,2026-06-08 12:00:00
38,优,331082,94,28.84326,优,--,24,11,83,优,#00E400,#00E400,3,巾山实验小学,#00E400,30,优,优,优,331000,#00E400,121.136,#00E400,11,优,0.4,优,#00E400,#00E400,331082002,优,#00E400,台州市,#00E400,优,16,16,#00E400,32,2026-06-08 12:00:00
39,优,331123,96,28.5839,优,--,19,6,80,优,#00E400,#00E400,6,遂昌中学,#00E400,30,优,优,优,331100,#00E400,119.2656,#00E400,4,优,0.4,优,#00E400,#00E400,331123002,优,#00E400,丽水市,#00E400,优,8,12,#00E400,32,2026-06-08 12:00:00
40,良,330723,94,28.9178,优,--,30,16,102,优,#00E400,#00E400,8,武义北岭幼儿园,#FFFF00,30,优,优,优,330700,#00E400,119.8022,#00E400,8,优,0.5,优,#00E400,#00E400,330723003,优,#00E400,金华市,#00E400,优,16,17,#00E400,32,2026-06-08 12:00:00
41,优,330225,97,29.2003,优,--,24,12,97,优,#00E400,#00E400,7,石浦新港小学,#00E400,31,优,优,优,330200,#00E400,121.934,#00E400,11,优,0.6,优,#00E400,#00E400,330225002,优,#00E400,宁波市,#00E400,优,17,15,#00E400,42,2026-06-08 12:00:00
42,优,330383,98,27.5812,优,--,21,10,79,优,#00E400,#00E400,7,龙港,#00E400,31,优,优,优,330300,#00E400,120.5489,#00E400,4,优,0.5,优,#00E400,#00E400,330327002,优,#00E400,温州市,#00E400,优,5,15,#00E400,42,2026-06-08 12:00:00
43,优,330726,97,29.465746,优,--,34,17,87,优,#00E400,#00E400,8,浦江实验中学,#00E400,31,优,优,优,330700,#00E400,119.875227,#00E400,12,优,0.5,优,#00E400,#00E400,330726001,优,#00E400,金华市,#00E400,优,20,23,#00E400,42,2026-06-08 12:00:00
44,--,330881,97,28.7465,优,--,32,9,--,优,#00E400,#00E400,4,江山环保大楼,--,31,优,优,优,330800,#00E400,118.6301,#00E400,16,优,0.5,优,#00E400,#00E400,330881001,优,#00E400,衢州市,#00E400,优,27,23,#00E400,42,2026-06-08 12:00:00
45,良,330825,98,29.0392,优,--,33,14,106,优,#00E400,#00E400,7,建设大楼,#FFFF00,31,优,优,优,330800,#00E400,119.1675,#00E400,17,优,0.4,优,#00E400,#00E400,330825001,优,#00E400,衢州市,#00E400,优,26,22,#00E400,42,2026-06-08 12:00:00
46,优,331083,98,28.2221,优,--,16,13,96,优,#00E400,#00E400,6,楚门中心小学,#00E400,31,优,优,优,331000,#00E400,121.2846,#00E400,10,优,0.8,优,#00E400,#00E400,331021002,优,#00E400,台州市,#00E400,优,16,11,#00E400,42,2026-06-08 12:00:00
47,优,331024,99,28.7403,优,--,20,8,95,优,#00E400,#00E400,7,新生中学,#00E400,31,优,优,优,331000,#00E400,120.4728,#00E400,13,优,0.4,优,#00E400,#00E400,331024002,优,#00E400,台州市,#00E400,优,2,14,#00E400,42,2026-06-08 12:00:00
48,优,331022,99,29.1028,优,--,27,7,94,优,#00E400,#00E400,4,心湖站,#00E400,31,优,优,优,331000,#00E400,121.3918,#00E400,6,优,0.4,优,#00E400,#00E400,331022002,优,#00E400,台州市,#00E400,优,9,18,#00E400,42,2026-06-08 12:00:00
49,优,331124,98,28.4505,优,--,20,14,92,优,#00E400,#00E400,4,松阳监测楼,#00E400,31,优,优,优,331100,#00E400,119.4799,#00E400,13,优,0.4,优,#00E400,#00E400,331124001,优,#00E400,丽水市,#00E400,优,12,16,#00E400,42,2026-06-08 12:00:00
50,良,330226,100,29.3125,优,--,29,24,106,优,#00E400,#00E400,5,宁海水利局,#FFFF00,32,优,优,优,330200,#00E400,121.4306,#00E400,11,优,0.4,优,#00E400,#00E400,330226001,优,#00E400,宁波市,#00E400,优,17,17,#00E400,51,2026-06-08 12:00:00
51,良,330226,102,29.2878,优,--,29,15,106,优,#00E400,#00E400,6,宁海城南站,#FFFF00,32,优,优,优,330200,#00E400,121.4201,#00E400,11,优,0.4,优,#00E400,#00E400,330226002,优,#00E400,宁波市,#00E400,优,15,19,#00E400,51,2026-06-08 12:00:00
52,优,330522,100,31.0263,优,--,24,9,79,优,#00E400,#00E400,6,龙山新区,#00E400,32,优,优,优,330500,#00E400,119.9046,#00E400,8,优,0.4,优,#00E400,#00E400,330522002,优,#00E400,湖州市,#00E400,优,12,13,#00E400,51,2026-06-08 12:00:00
53,优,330683,102,29.5663,优,--,24,11,83,优,#00E400,#00E400,3,丽湖小区,#00E400,32,优,优,优,330600,#00E400,120.8173,#00E400,21,优,0.5,优,#00E400,#00E400,330683002,优,#00E400,绍兴市,#00E400,优,25,20,#00E400,51,2026-06-08 12:00:00
54,优,330726,100,29.439787,优,--,39,15,79,优,#00E400,#00E400,6,浦江中学,#00E400,32,优,优,优,330700,#00E400,119.924638,#00E400,10,优,0.5,优,#00E400,#00E400,330726002,优,#00E400,金华市,#00E400,优,28,23,#00E400,51,2026-06-08 12:00:00
55,优,330784,102,28.8854,优,--,32,9,95,优,#00E400,#00E400,7,永康一中,#00E400,32,优,优,优,330700,#00E400,120.0439,#00E400,9,优,0.5,优,#00E400,#00E400,330784001,优,#00E400,金华市,#00E400,优,17,18,#00E400,51,2026-06-08 12:00:00
56,良,330824,101,29.1478,优,--,29,7,112,优,#00E400,#00E400,8,开化监测大楼,#FFFF00,32,优,优,优,330800,#00E400,118.4108,#00E400,10,优,0.4,优,#00E400,#00E400,330824002,优,#00E400,衢州市,#00E400,优,19,17,#00E400,51,2026-06-08 12:00:00
57,优,331121,100,28.1341,优,--,12,6,82,优,#00E400,#00E400,6,塔山小学,#00E400,32,优,优,优,331100,#00E400,120.2936,#00E400,9,优,0.5,优,#00E400,#00E400,331121001,优,#00E400,丽水市,#00E400,优,12,8,#00E400,51,2026-06-08 12:00:00
58,优,331123,102,28.5991,优,--,18,6,93,优,#00E400,#00E400,5,遂昌民政局,#00E400,32,优,优,优,331100,#00E400,119.2622,#00E400,5,优,0.6,优,#00E400,#00E400,331123001,优,#00E400,丽水市,#00E400,优,9,13,#00E400,51,2026-06-08 12:00:00
59,优,330281,103,30.0497,优,--,24,17,82,优,#00E400,#00E400,5,龙山公园,#00E400,33,优,优,优,330200,#00E400,121.1475,#00E400,11,优,0.5,优,#00E400,#00E400,330281001,优,#00E400,宁波市,#00E400,优,21,15,#00E400,60,2026-06-08 12:00:00
60,优,330324,104,28.158269,优,--,15,7,100,优,#00E400,#00E400,6,上塘,#00E400,33,优,优,优,330300,#00E400,120.694244,#00E400,3,优,0.7,优,#00E400,#00E400,330324001,优,#00E400,温州市,#00E400,优,5,7,#00E400,60,2026-06-08 12:00:00
61,优,330522,103,31.0143,优,--,29,11,81,优,#00E400,#00E400,5,职教中心,#00E400,33,优,优,优,330500,#00E400,119.8935,#00E400,8,优,0.3,优,#00E400,#00E400,330522001,优,#00E400,湖州市,#00E400,优,12,15,#00E400,60,2026-06-08 12:00:00
62,良,331125,103,28.1173,优,--,16,11,102,优,#00E400,#00E400,7,云和监测楼,#FFFF00,33,优,优,优,331100,#00E400,119.5626,#00E400,13,优,0.4,优,#00E400,#00E400,331125001,优,#00E400,丽水市,#00E400,优,15,12,#00E400,60,2026-06-08 12:00:00
63,优,330483,106,30.6488,优,--,32,14,95,优,#00E400,#00E400,5,茅盾小学,#00E400,34,优,优,优,330400,#00E400,120.5498,#00E400,15,优,0.4,优,#00E400,#00E400,330483001,优,#00E400,嘉兴市,#00E400,优,26,16,#00E400,64,2026-06-08 12:00:00
64,--,330723,106,28.896108,优,--,29,9,--,优,#00E400,#00E400,8,武义县政府,--,34,优,优,优,330700,#00E400,119.811352,#00E400,16,优,0.5,优,#00E400,#00E400,330723001,优,#00E400,金华市,#00E400,优,21,20,#00E400,64,2026-06-08 12:00:00
65,优,330782,57,29.335473,优,--,31,12,50,优,#00E400,#00E400,6,北苑,#00E400,34,优,优,优,330700,#00E400,120.078609,#00E400,22,优,0.8,优,#00E400,#00E400,330782001,优,#00E400,金华市,#00E400,优,34,20,#00E400,64,2026-06-08 12:00:00
66,良,331122,106,28.6574,优,--,30,20,115,优,#00E400,#00E400,6,缙云中学,#FFFF00,34,优,优,优,331100,#00E400,120.0696,#00E400,9,优,0.5,优,#00E400,#00E400,331122001,优,#00E400,丽水市,#00E400,优,14,23,#00E400,64,2026-06-08 12:00:00
67,优,331124,107,28.4516,优,--,20,14,96,优,#00E400,#00E400,5,和平水厂,#00E400,34,优,优,优,331100,#00E400,119.4699,#00E400,7,优,0.4,优,#00E400,#00E400,331124002,优,#00E400,丽水市,#00E400,优,11,10,#00E400,64,2026-06-08 12:00:00
68,良,331125,108,28.1062,优,--,23,8,106,优,#00E400,#00E400,6,云和三中,#FFFF00,34,优,优,优,331100,#00E400,119.5728,#00E400,11,优,0.5,优,#00E400,#00E400,331125002,优,#00E400,丽水市,#00E400,优,21,14,#00E400,64,2026-06-08 12:00:00
69,优,330383,106,27.5617,优,--,19,9,89,优,#00E400,#00E400,6,龙港实验中学,#00E400,34,优,优,优,330300,#00E400,120.5355,#00E400,4,优,0.5,优,#00E400,#00E400,330303101,优,#00E400,温州市,#00E400,优,6,14,#00E400,64,2026-06-08 12:00:00
70,优,330281,112,30.0358,优,--,26,18,88,优,#00E400,#00E400,6,姚江小学,#00E400,35,优,优,优,330200,#00E400,121.1221,#00E400,16,优,0.6,优,#00E400,#00E400,330281002,优,#00E400,宁波市,#00E400,优,18,19,#00E400,71,2026-06-08 12:00:00
71,优,330481,111,30.5261,优,--,31,11,96,优,#00E400,#00E400,6,海宁监测大楼,#00E400,35,优,优,优,330400,#00E400,120.6739,#00E400,10,优,0.2,优,#00E400,#00E400,330481001,优,#00E400,嘉兴市,#00E400,优,16,18,#00E400,71,2026-06-08 12:00:00
72,良,330421,109,30.836,优,--,30,10,101,优,#00E400,#00E400,6,嘉善监测大楼,#FFFF00,35,优,优,优,330400,#00E400,120.9226,#00E400,7,优,0.3,优,#00E400,#00E400,330421001,优,#00E400,嘉兴市,#00E400,优,14,16,#00E400,71,2026-06-08 12:00:00
73,优,330521,111,30.5231,优,--,25,12,89,优,#00E400,#00E400,9,地信科创园,#00E400,35,优,优,优,330500,#00E400,119.9781,#00E400,16,优,0.6,优,#00E400,#00E400,330521001,优,#00E400,湖州市,#00E400,优,26,17,#00E400,71,2026-06-08 12:00:00
74,优,330824,92,29.1343,优,--,33,6,100,优,#00E400,#00E400,6,开化气象局,#00E400,35,优,优,优,330800,#00E400,118.402,#00E400,15,优,0.3,优,#00E400,#00E400,330824001,优,#00E400,衢州市,#00E400,优,35,15,#00E400,71,2026-06-08 12:00:00
75,优,331181,111,28.08007,优,--,16,7,94,优,#00E400,#00E400,8,龙泉环保大楼,#00E400,35,优,优,优,331100,#00E400,119.1328,#00E400,4,优,0.4,优,#00E400,#00E400,331181001,优,#00E400,丽水市,#00E400,优,8,10,#00E400,71,2026-06-08 12:00:00
76,优,330212,110,29.7736,优,--,30,10,90,优,#00E400,#00E400,4,钱湖水厂,#00E400,35,优,优,优,330200,#00E400,121.6330,#00E400,10,优,0.4,优,#00E400,#00E400,2013302120001,优,#00E400,宁波市,#00E400,优,19,19,#00E400,71,2026-06-08 12:00:00
77,优,330483,109,30.6355,优,--,29,10,96,优,#00E400,#00E400,8,文化中心,#00E400,35,优,优,优,330400,#00E400,120.5795,#00E400,14,优,0.5,优,#00E400,#00E400,330483003,优,#00E400,嘉兴市,#00E400,优,26,16,#00E400,71,2026-06-08 12:00:00
78,优,330521,110,30.548493,优,--,24,11,78,优,#00E400,#00E400,8,春晖小学,#00E400,35,优,优,优,330500,#00E400,119.9505,#00E400,16,优,0.6,优,#00E400,#00E400,330521003,优,#00E400,湖州市,#00E400,优,26,14,#00E400,71,2026-06-08 12:00:00
79,良,330127,113,29.5995,优,--,30,8,102,优,#00E400,#00E400,8,淳安环保大楼,#FFFF00,36,优,优,优,330100,#00E400,119.0481,#00E400,14,优,0.6,优,#00E400,#00E400,330127001,优,#00E400,杭州市,#00E400,优,20,20,#00E400,80,2026-06-08 12:00:00
80,优,330482,113,30.6937,优,--,26,8,94,优,#00E400,#00E400,8,平湖幼儿园,#00E400,36,优,优,优,330400,#00E400,121.0259,#00E400,7,优,0.6,优,#00E400,#00E400,330482001,优,#00E400,嘉兴市,#00E400,优,13,16,#00E400,80,2026-06-08 12:00:00
81,优,330424,115,30.5299,优,--,27,15,97,优,#00E400,#00E400,5,海盐商贸学校,#00E400,36,优,优,优,330400,#00E400,120.9293,#00E400,8,优,0.5,优,#00E400,#00E400,330424002,优,#00E400,嘉兴市,#00E400,优,14,18,#00E400,80,2026-06-08 12:00:00
82,优,330523,101,30.6422,优,--,29,12,71,优,#00E400,#00E400,9,安吉实验小学,#00E400,36,优,优,优,330500,#00E400,119.6768,#00E400,24,优,0.6,优,#00E400,#00E400,330523001,优,#00E400,湖州市,#00E400,优,36,21,#00E400,80,2026-06-08 12:00:00
83,优,330922,113,30.7269,优,--,21,4,98,优,#00E400,#00E400,8,嵊泗菜园,#00E400,36,优,优,优,330900,#00E400,122.4464,#00E400,9,优,0.5,优,#00E400,#00E400,330922001,优,#00E400,舟山市,#00E400,优,16,13,#00E400,80,2026-06-08 12:00:00
84,优,331127,118,28.002222,优,--,13,7,98,优,#00E400,#00E400,4,红星小学,#00E400,37,优,优,优,331100,#00E400,119.636389,#00E400,8,优,0.4,优,#00E400,#00E400,331127003,优,#00E400,丽水市,#00E400,优,13,8,#00E400,85,2026-06-08 12:00:00
85,优,330481,116,30.5137,优,--,27,10,100,优,#00E400,#00E400,10,硖石街道,#00E400,37,优,优,优,330400,#00E400,120.7082,#00E400,7,优,0.4,优,#00E400,#00E400,330481002,优,#00E400,嘉兴市,#00E400,优,15,14,#00E400,85,2026-06-08 12:00:00
86,优,330681,117,29.6818,优,--,28,6,88,优,#00E400,#00E400,6,杨树畈,#00E400,37,优,优,优,330600,#00E400,120.2359,#00E400,13,优,0.5,优,#00E400,#00E400,330681001,优,#00E400,绍兴市,#00E400,优,23,19,#00E400,85,2026-06-08 12:00:00
87,优,331127,116,27.9772,优,--,10,6,97,优,#00E400,#00E400,4,景宁县政府,#00E400,37,优,优,优,331100,#00E400,119.6311,#00E400,9,优,0.5,优,#00E400,#00E400,331127002,优,#00E400,丽水市,#00E400,优,10,7,#00E400,85,2026-06-08 12:00:00
88,优,330182,119,29.4769,优,--,36,8,91,优,#00E400,#00E400,8,建德监测大楼,#00E400,38,优,优,优,330100,#00E400,119.2711,#00E400,12,优,0.6,优,#00E400,#00E400,330182T_2,优,#00E400,杭州市,#00E400,优,20,23,#00E400,89,2026-06-08 12:00:00
89,良,330127,121,29.605,优,--,32,9,108,优,#00E400,#00E400,12,老年活动中心,#FFFF00,38,优,优,优,330100,#00E400,119.0372,#00E400,15,优,0.5,优,#00E400,#00E400,330127T_4,优,#00E400,杭州市,#00E400,优,28,19,#00E400,89,2026-06-08 12:00:00
90,良,330481,119,30.5524,优,--,29,10,103,优,#00E400,#00E400,7,胜利社区,#FFFF00,38,优,优,优,330400,#00E400,120.6713,#00E400,11,优,0.5,优,#00E400,#00E400,330481003,优,#00E400,嘉兴市,#00E400,优,16,15,#00E400,89,2026-06-08 12:00:00
91,优,330782,77,29.3686,优,--,36,15,67,优,#00E400,#00E400,8,第五中学,#00E400,38,优,优,优,330700,#00E400,120.1345,#00E400,16,优,0.7,优,#00E400,#00E400,330782003,优,#00E400,金华市,#00E400,优,38,20,#00E400,89,2026-06-08 12:00:00
92,优,330182,122,29.4638,优,--,37,5,100,优,#00E400,#00E400,5,第二中学,#00E400,39,优,优,优,330100,#00E400,119.2821,#00E400,12,优,0.5,优,#00E400,#00E400,330182002,优,#00E400,杭州市,#00E400,优,21,23,#00E400,93,2026-06-08 12:00:00
93,优,330282,122,30.1636,优,--,27,10,98,优,#00E400,#00E400,3,慈溪环保大楼,#00E400,39,优,优,优,330200,#00E400,121.2677,#00E400,12,优,0.4,优,#00E400,#00E400,330282001,优,#00E400,宁波市,#00E400,优,26,15,#00E400,93,2026-06-08 12:00:00
94,良,330921,122,30.2669,优,--,26,11,101,优,#00E400,#00E400,5,岱山环保大楼,#FFFF00,39,优,优,优,330900,#00E400,122.2199,#00E400,11,优,0.5,优,#00E400,#00E400,330921001,优,#00E400,舟山市,#00E400,优,21,15,#00E400,93,2026-06-08 12:00:00
95,良,330921,122,30.2517,优,--,25,6,101,优,#00E400,#00E400,7,岱山高亭,#FFFF00,39,优,优,优,330900,#00E400,122.1958,#00E400,12,优,0.5,优,#00E400,#00E400,330921002,优,#00E400,舟山市,#00E400,优,19,14,#00E400,93,2026-06-08 12:00:00
96,优,330681,125,29.7257,优,--,32,11,90,优,#00E400,#00E400,7,城新小学,#00E400,40,优,优,优,330600,#00E400,120.272,#00E400,17,优,0.6,优,#00E400,#00E400,330681505,优,#00E400,绍兴市,#00E400,优,28,21,#00E400,97,2026-06-08 12:00:00
97,良,330122,127,29.8058,优,--,36,11,104,优,#00E400,#00E400,5,桐庐江北,#FFFF00,40,优,优,优,330100,#00E400,119.669,#00E400,22,优,0.4,优,#00E400,#00E400,330122002,优,#00E400,杭州市,#00E400,优,33,22,#00E400,97,2026-06-08 12:00:00
98,优,330122,126,29.7955,优,--,40,11,97,优,#00E400,#00E400,7,桐庐江南,#00E400,40,优,优,优,330100,#00E400,119.6874,#00E400,19,优,0.5,优,#00E400,#00E400,330122001,优,#00E400,杭州市,#00E400,优,33,25,#00E400,97,2026-06-08 12:00:00
99,优,330282,128,30.1786,优,--,24,8,100,优,#00E400,#00E400,4,慈溪实验小学,#00E400,40,优,优,优,330200,#00E400,121.2525,#00E400,13,优,0.4,优,#00E400,--,330282002,--,#00E400,宁波市,#00E400,优,17,--,#00E400,97,2026-06-08 12:00:00
100,良,330110,127,30.2635,优,--,33,13,103,优,#00E400,#00E400,9,海辰小学,#FFFF00,40,优,优,优,330100,#00E400,119.9842,#00E400,18,优,0.8,优,#00E400,#00E400,2013301100001,优,#00E400,杭州市,#00E400,优,33,20,#00E400,97,2026-06-08 12:00:00
101,优,330225,84,29.4767,优,--,35,--,83,优,--,--,8,文峰小学,#00E400,--,--,--,优,330200,#00E400,121.8864,--,--,--,0.4,--,#00E400,#00E400,330225001,优,--,宁波市,#00E400,优,--,18,#00E400,98,2026-06-08 12:00:00
102,优,330326,77,27.6593,优,--,21,18,67,优,#00E400,#00E400,--,平阳监测站,#00E400,--,优,--,优,330300,--,120.5705,#00E400,4,优,0.4,优,#00E400,#00E400,330326001,优,--,温州市,#00E400,--,12,12,#00E400,98,2026-06-08 12:00:00
103,优,330327,76,27.503889,--,--,19,9,75,优,#00E400,#00E400,10,灵溪,#00E400,--,优,--,优,330300,#00E400,120.395278,#00E400,5,优,--,优,--,#00E400,330327001,优,--,温州市,#00E400,优,10,11,#00E400,98,2026-06-08 12:00:00
104,优,330482,107,30.7292,--,--,25,13,93,优,#00E400,#00E400,9,陆家桥村,#00E400,--,优,--,优,330400,#00E400,120.9953,#00E400,8,优,--,优,--,#00E400,330482002,优,--,嘉兴市,#00E400,优,12,16,#00E400,98,2026-06-08 12:00:00
105,良,330421,117,30.8307,优,--,27,14,104,优,#00E400,#00E400,--,气象观测台,#FFFF00,--,优,--,优,330400,--,120.9356,#00E400,8,优,0.4,优,#00E400,#00E400,330421002,优,--,嘉兴市,#00E400,--,13,14,#00E400,98,2026-06-08 12:00:00
106,优,330483,103,30.625,--,--,33,16,94,优,#00E400,#00E400,5,振东新六中站,#00E400,--,优,--,优,330400,#00E400,120.5613,#00E400,14,优,--,优,--,#00E400,330483002,优,--,嘉兴市,#00E400,优,23,18,#00E400,98,2026-06-08 12:00:00
107,优,330424,119,30.5042,--,--,29,10,100,优,#00E400,#00E400,5,高级中学,#00E400,--,优,--,优,330400,#00E400,120.9413,#00E400,10,优,--,优,--,#00E400,330424001,优,--,嘉兴市,#00E400,优,15,18,#00E400,98,2026-06-08 12:00:00
108,--,330523,--,30.5974,--,--,--,--,--,--,--,--,--,安吉城东,--,--,--,--,--,330500,--,119.6953,--,--,--,--,--,--,--,330523002,--,--,湖州市,--,--,--,--,--,98,2026-06-08 12:00:00
109,优,330683,96,29.5901,--,--,33,11,70,优,#00E400,#00E400,6,马寅初初中,#00E400,--,优,--,优,330600,#00E400,120.8249,#00E400,30,优,--,优,--,#00E400,330683001,优,--,绍兴市,#00E400,优,44,21,#00E400,98,2026-06-08 12:00:00
110,优,330681,122,29.726389,优,--,32,--,90,优,#00E400,#00E400,--,青少年宫,#00E400,--,--,--,优,330600,--,120.199722,--,15,优,0.3,优,#00E400,#00E400,330681002,优,--,绍兴市,#00E400,--,27,21,#00E400,98,2026-06-08 12:00:00
111,优,330624,78,29.5036,优,--,31,--,70,优,#00E400,#00E400,2,钟楼站,#00E400,--,--,--,优,330600,#00E400,120.8938,--,19,优,0.5,优,#00E400,#00E400,330624001,优,--,绍兴市,#00E400,优,32,20,#00E400,98,2026-06-08 12:00:00
112,优,330727,88,29.039869,--,--,26,5,90,优,#00E400,#00E400,7,南园初中,#00E400,--,优,--,优,330700,#00E400,120.440622,#00E400,7,优,--,优,--,#00E400,330727003,优,--,金华市,#00E400,优,12,19,#00E400,98,2026-06-08 12:00:00
113,优,330781,95,29.216166,优,--,32,11,80,优,#00E400,#00E400,--,兰溪监测站,#00E400,--,优,--,优,330700,--,119.459992,#00E400,9,优,0.5,优,#00E400,#00E400,330781001,优,--,金华市,#00E400,--,13,20,#00E400,98,2026-06-08 12:00:00
114,优,331082,98,28.873,--,--,19,8,88,优,#00E400,#00E400,5,临海环保大楼,#00E400,--,优,--,优,331000,#00E400,121.1769,#00E400,8,优,--,优,--,#00E400,331082001,优,--,台州市,#00E400,优,12,13,#00E400,98,2026-06-08 12:00:00
115,优,331022,96,29.11779,--,--,29,8,90,优,--,--,5,三门环监楼,#00E400,--,优,--,优,331000,#00E400,121.382189,#00E400,--,--,--,--,--,#00E400,331022001,优,--,台州市,#00E400,优,--,18,#00E400,98,2026-06-08 12:00:00
116,优,331181,107,28.076,--,--,16,10,83,优,#00E400,#00E400,10,粮食大楼,#00E400,--,优,--,优,331100,#00E400,119.1217,#00E400,6,优,--,优,--,#00E400,331181002,优,--,丽水市,#00E400,优,11,9,#00E400,98,2026-06-08 12:00:00
117,优,330483,112,30.7369,--,--,28,13,93,优,#00E400,#00E400,5,植材小学,#00E400,--,优,--,优,330400,#00E400,120.4902,#00E400,13,优,--,优,--,#00E400,330483509,优,--,嘉兴市,#00E400,优,20,16,#00E400,98,2026-06-08 12:00:00
