timepoint,stationcode,longitude,latitude,area,positionname,primarypollutant,aqi,pm10,pm10_24h,pm2_5,pm2_5_24h,o3,o3_24h,o3_8h,o3_8h_24h,no2,no2_24h,so2,so2_24h,co,co_24h
2026-07-21T1300,1590A,110.0376,40.5546,包头市,东河鸿龙湾,,44,25,33,3,19,140,140,77,77,9,21,12,19,0.3,0.4
2026-07-21T1300,3283A,109.9154,40.5684,包头市,滨河大厦,,40,30,29,9,17,125,125,76,76,15,21,10,12,0.6,0.5
2026-07-21T1300,3419A,109.9449,40.6259,包头市,包头市委党校,,43,21,31,9,16,136,136,77,77,13,33,12,18,0.3,0.6
2026-07-21T1300,3683A,109.8332,40.6577,包头市,昆区政府,,41,33,39,16,19,130,130,76,76,22,35,27,14,0.9,0.8
2026-07-21T1300,1931A,107.0802,34.3129,宝鸡市,竹园沟,NA,NA,51,29,21,17,155,155,97,97,NA,6,9,7,0.6,0.6
2026-07-21T1300,1933A,107.1429,34.3549,宝鸡市,监测站,臭氧1小时(O3_1h),70,52,42,26,23,176,176,100,100,7,9,14,10,0.5,0.4
2026-07-21T1300,1934A,107.1172,34.3759,宝鸡市,技工学校,NA,NA,87,47,40,26,180,180,106,106,6,8,NA,7,0.5,0.5
2026-07-21T1300,1936A,107.2025,34.3518,宝鸡市,文理学院,臭氧1小时(O3_1h),79,53,48,29,26,183,183,99,99,10,14,16,10,0.6,0.6
2026-07-21T1300,1937A,107.2396,34.3626,宝鸡市,三迪小学,臭氧1小时(O3_1h),89,74,48,29,25,191,191,106,106,12,14,15,6,0.5,0.4
2026-07-21T1300,4155A,107.1721,34.3558,宝鸡市,滨河北路,臭氧1小时(O3_1h),63,47,49,27,26,170,170,96,96,6,9,11,8,0.6,0.6
2026-07-21T1300,4308A,107.3898,34.3601,宝鸡市,陈仓区北开路21号,臭氧1小时(O3_1h),69,62,56,29,30,175,175,100,100,9,16,11,9,0.5,0.4
2026-07-21T1300,1051A,115.4803,38.8568,保定市,游泳馆,臭氧1小时(O3_1h),69,NA,24,16,18,175,175,112,112,9,9,5,5,0.1,0
2026-07-21T1300,1052A,115.509,38.8895,保定市,华电二区,臭氧1小时(O3_1h),93,19,23,19,14,194,194,119,119,6,8,1,3,0.5,0.5
2026-07-21T1300,1053A,115.4588,38.9037,保定市,接待中心,臭氧1小时(O3_1h),67,30,34,20,17,173,173,117,117,5,6,2,2,0.4,0.3
2026-07-21T1300,1054A,115.4484,38.8344,保定市,地表水厂,臭氧1小时(O3_1h),53,25,31,14,13,162,162,103,103,4,7,2,2,0.2,0.2
2026-07-21T1300,3581A,115.3136,38.9511,保定市,满城区生态环境分局,臭氧1小时(O3_1h),70,22,23,14,15,176,176,113,113,3,4,1,2,0.1,0
2026-07-21T1300,3582A,115.4709,38.7628,保定市,清苑区第二中学,,49,19,24,13,14,155,155,106,106,5,12,3,2,0.3,0.3
2026-07-21T1300,3583A,115.6231,39.0223,保定市,徐水物探局,,50,15,17,12,17,160,160,108,108,6,11,2,1,0.3,0.3
2026-07-21T1300,4004A,115.4199,38.8665,保定市,双鹰农机,臭氧1小时(O3_1h),55,21,25,20,19,164,164,102,102,2,6,3,2,0.2,0.1
2026-07-21T1300,4034A,115.515,38.8589,保定市,植保所站,臭氧1小时(O3_1h),62,NA,32,24,14,169,169,105,105,15,9,3,3,0.1,0.1
2026-07-21T1300,2594A,99.1589,25.1137,保山市,市环境监测站,,27,18,20,13,9,86,86,46,46,6,8,6,6,0.3,0.3
2026-07-21T1300,2595A,99.1616,25.1381,保山市,市环保局,,29,21,20,7,9,92,92,45,45,6,5,7,6,0,0.3
2026-07-21T1300,1867A,109.1435,21.4085,北海市,海滩公园,,27,27,44,6,14,69,69,66,66,3,3,2,2,0.5,0.5
2026-07-21T1300,1868A,109.0983,21.466,北海市,新市环保局,,23,23,21,3,10,62,62,63,62,7,7,2,2,0.6,0.6
2026-07-21T1300,1869A,109.1775,21.5232,北海市,北海工业园,NA,NA,6,19,3,7,52,52,54,54,NA,8,1,2,0.7,0.7
2026-07-21T1300,3400A,109.1844,21.4396,北海市,龙潭自来水厂,,18,10,22,3,9,56,56,58,58,6,4,3,3,0.6,0.6
2026-07-21T1300,1001A,116.3611,39.8786,北京市,万寿西宫,臭氧1小时(O3_1h),59,14,34,13,23,167,167,102,102,8,14,3,2,0.3,0.4
2026-07-21T1300,1003A,116.4174,39.9289,北京市,东四,臭氧1小时(O3_1h),70,18,36,13,25,176,176,111,111,10,18,2,2,0.3,0.4
2026-07-21T1300,1004A,116.4073,39.8858,北京市,天坛,,47,17,39,7,22,150,150,85,85,1,8,2,2,0.5,0.6
2026-07-21T1300,1005A,116.4622,39.9364,北京市,农展馆,臭氧1小时(O3_1h),64,19,37,14,25,171,171,100,100,12,17,1,1,0.5,0.5
2026-07-21T1300,1006A,116.3399,39.9293,北京市,官园,臭氧1小时(O3_1h),69,28,38,13,26,175,175,87,87,11,20,2,2,0.6,0.6
2026-07-21T1300,1351A,113.2147,23.3918,广州市,花都师范,,31,31,39,18,19,32,32,36,34,24,27,2,3,0.5,0.5
2026-07-21T1300,1352A,113.2599,23.1329,广州市,市监测站,,32,32,39,16,19,46,46,40,40,20,18,2,2,/,/
2026-07-21T1300,1353A,113.5618,23.3119,广州市,九龙镇镇龙,,18,14,39,9,21,57,57,38,38,11,23,6,7,0.4,0.5
2026-07-21T1300,1354A,113.2764,23.1544,广州市,麓湖,,29,29,34,17,18,41,41,39,38,19,18,5,5,0.6,0.6
2026-07-21T1300,2846A,113.3209,23.1323,广州市,体育西,,22,22,33,14,18,51,51,38,38,21,28,6,6,0.5,0.5
2026-07-21T1300,3298A,113.5718,23.5493,广州市,从化街口,,19,19,37,12,21,52,52,45,45,11,14,8,8,0.7,0.7
2026-07-21T1300,3299A,113.3463,23.369,广州市,白云竹料,,26,26,39,15,20,44,44,34,34,16,22,3,3,0.6,0.7
2026-07-21T1300,3300A,113.2981,23.2365,广州市,白云嘉禾,,41,41,42,21,18,35,35,32,32,25,27,8,8,/,/
2026-07-21T1300,3301A,113.4256,23.1716,广州市,黄埔科学城,,23,23,36,14,18,35,35,37,37,19,22,7,7,0.4,0.5
2026-07-21T1300,3302A,113.3942,23.0485,广州市,番禺大学城,,23,23,36,6,16,57,57,47,47,16,19,6,6,0.5,0.5
2026-07-21T1300,3303A,113.4923,22.8169,广州市,南沙黄阁,,18,9,39,3,20,55,55,55,55,17,12,6,6,/,/
2026-07-21T1300,3304A,113.534,22.7893,广州市,南沙街,,21,6,38,3,18,65,65,60,60,8,10,8,8,0.6,0.6
2026-07-21T1300,3443A,113.2905,23.5541,广州市,花都梯面,,23,23,34,10,16,43,43,43,43,10,13,4,3,/,/
2026-07-21T1300,3445A,113.786,23.7479,广州市,从化良口,,20,9,31,7,19,61,61,45,45,7,12,4,4,/,/
2026-07-21T1300,3446A,113.805,23.2614,广州市,增城荔城,,26,19,39,11,21,82,82,58,58,7,18,8,8,0.6,0.6
2026-07-21T1300,2506A,109.604387,23.066791,贵港市,江南子站,NA,NA,NA,NA,NA,NA,NA,NA,NA,NA,NA,NA,NA,NA,NA,NA
2026-07-21T1300,2508A,109.5669,23.1065,贵港市,荷城子站,,18,17,7,12,6,25,25,47,38,12,9,9,7,0.7,0.6
2026-07-21T1300,3405A,109.5886,23.1172,贵港市,新世纪学校,,19,19,10,12,7,22,22,47,37,22,14,/,/,0.6,0.4
2026-07-21T1300,4260A,109.5933,23.095,贵港市,中山路155-3号,,29,NA,17,20,9,32,32,51,42,9,10,/,/,0.5,0.6
2026-07-21T1300,1439A,106.6863,26.6035,贵阳市,马鞍山,,35,19,23,9,15,111,111,54,54,3,8,5,3,/,/
2026-07-21T1300,1441A,106.6241,26.6266,贵阳市,鉴湖路,,38,36,38,10,15,119,119,67,67,4,14,7,7,0.5,0.7
2026-07-21T1300,1442A,106.7468,26.6344,贵阳市,燕子冲,,31,27,33,14,13,97,97,54,54,7,14,10,8,0.5,0.6
2026-07-21T1300,1443A,106.6556,26.4362,贵阳市,碧云窝,,40,34,44,13,17,126,126,63,63,4,13,5,6,/,/
2026-07-21T1300,1445A,106.6963,26.6063,贵阳市,红边门,,36,17,27,9,12,115,115,68,68,5,13,11,11,/,/
2026-07-21T1300,1446A,106.7162383,26.56964667,贵阳市,新华路,,48,31,36,8,14,151,151,96,96,3,12,112,47,0.5,0.5
2026-07-21T1300,1447A,106.6742,26.542,贵阳市,太慈桥,NA,NA,17,26,6,13,119,119,61,61,NA,15,4,3,/,/
2026-07-21T1300,4230A,106.688212,26.56952,贵阳市,花果园大街66号,,33,15,30,3,15,105,105,60,60,6,15,1,2,/,/
2026-07-21T1300,4231A,106.687268,26.516892,贵阳市,漓江路57号,,36,22,29,14,16,113,113,60,60,5,20,3,3,0.4,0.5
2026-07-21T1300,1864A,110.3091,25.2705,桂林市,龙隐路小学,,20,6,10,3,6,62,62,57,57,4,5,4,4,0.7,0.7
2026-07-21T1300,1865A,110.2849361,25.22909545,桂林市,八中,,19,11,10,3,5,59,59,54,54,6,11,4,4,0.7,0.8
2026-07-21T1300,3531A,110.296,25.1254,桂林市,旅游学院,,19,14,18,3,4,59,59,51,51,2,3,4,3,0.3,0.3
2026-07-21T1300,4222A,110.1835,25.2444,桂林市,环湖路276号,,18,NA,5,7,8,55,55,50,50,2,6,5,6,0.4,0.5
2026-07-21T1300,4301A,110.2803,25.2773,桂林市,信义路13号,,17,15,11,6,6,53,53,50,50,5,8,3,4,0.8,0.8
2026-07-21T1300,2674A,100.2262,34.4854,果洛藏族自治州,玛沁县大武镇,,42,33,34,6,10,132,132,80,80,2,2,9,9,0.3,0.4
2026-07-21T1300,1130A,126.5557,45.8109,哈尔滨市,松北商大,,34,34,33,23,21,101,101,45,45,10,25,6,5,0.5,0.6
2026-07-21T1300,1132A,126.6162,45.719,哈尔滨市,南岗学府路,,37,32,40,14,13,118,118,62,62,6,24,8,7,0.3,0.4
2026-07-21T1300,3179A,102.7491,25.012,昆明市,官渡区博物馆,臭氧1小时(O3_1h),59,49,42,25,22,167,167,71,71,16,43,6,5,0.6,0.5
2026-07-21T1300,3375A,102.8016,24.8336,昆明市,青年创业园,,39,21,32,11,17,123,123,80,80,5,22,6,6,0.3,0.3
2026-07-21T1300,3550A,102.8,24.9787,昆明市,昆明学院,臭氧1小时(O3_1h),57,56,53,27,20,165,165,81,81,14,29,9,7,0.8,0.6
2026-07-21T1300,3551A,102.5969,24.6738,昆明市,晋宁区生态环境分局,,46,NA,31,29,23,147,147,84,84,8,12,15,10,0.6,0.5
2026-07-21T1300,3552A,102.6673,24.9861,昆明市,云天化总部,,49,30,38,24,22,154,154,83,83,11,27,7,6,0.5,0.4
2026-07-21T1300,1456A,91.132,29.6515,拉萨市,八廓街,,45,9,11,3,6,143,143,129,129,5,8,7,6,0.2,0.2
2026-07-21T1300,1457A,91.1221,29.6748,拉萨市,市环保局,,45,9,14,3,8,141,141,128,128,9,11,6,6,0.3,0.3
2026-07-21T1300,1458A,91.0874,29.6476,拉萨市,区监测站,,44,9,9,3,6,139,139,125,125,8,11,6,6,0.1,0.1
2026-07-21T1300,1459A,91.1774,29.6541,拉萨市,西藏大学,,45,6,10,3,6,144,144,131,131,9,11,4,5,0.2,0.3
2026-07-21T1300,1460A,90.9798,29.6586,拉萨市,区辐射站,,43,13,13,3,6,135,135,123,123,12,15,7,7,0.1,0.2
2026-07-21T1300,1461A,91.0831,29.6292,拉萨市,拉萨火车站,,44,8,9,6,6,140,140,126,126,8,8,4,4,0.2,0.2
2026-07-21T1300,2520A,109.2203,23.7252,来宾市,来宾技工学校,,26,26,16,12,7,74,74,53,53,6,10,3,4,0.6,0.6
2026-07-21T1300,3535A,109.1781,23.7293,来宾市,兴宾区政府,,25,20,14,12,7,79,79,54,54,3,7,5,6,0.8,0.7
2026-07-21T1300,4002A,109.2312,23.7428,来宾市,中南小学,,27,27,17,12,10,76,76,51,51,6,9,6,6,0.6,0.6
2026-07-21T1300,1479A,103.8309,36.0467,兰州市,铁路设计院,臭氧1小时(O3_1h),72,37,51,13,16,177,177,96,96,20,23,11,9,0.8,0.7
2026-07-21T1300,3241A,103.7439,36.0841,兰州市,百合公园,臭氧1小时(O3_1h),54,40,54,11,17,163,163,90,90,12,27,12,8,0.3,0.4
2026-07-21T1300,3242A,103.9613,35.9985,兰州市,和平,臭氧1小时(O3_1h),54,41,46,18,19,163,163,99,99,14,10,10,9,0.4,0.4
2026-07-21T1300,4236A,103.629272,36.093822,兰州市,庄浪东路808号,,39,25,47,14,17,124,124,80,80,8,18,12,12,0.2,0.3
2026-07-21T1300,4237A,103.7251,36.104344,兰州市,安宁西路88号,臭氧1小时(O3_1h),73,26,49,13,18,178,178,76,NA,7,16,13,10,0.5,0.4
2026-07-21T1300,4238A,103.846982,36.067567,兰州市,北滨河东路1号,臭氧1小时(O3_1h),63,32,49,16,19,170,170,81,81,20,25,15,13,0.6,0.5
2026-07-21T1300,1067A,116.6712,39.5109,廊坊市,药材公司,,44,20,22,8,15,140,140,111,111,2,6,1,1,0.2,0.2
2026-07-21T1300,1068A,116.7215,39.5592,廊坊市,开发区,,50,18,22,14,16,160,160,117,117,2,4,3,3,0.3,0.3
2026-07-21T1300,1070A,116.7246,39.5273,廊坊市,北华航天学院,,50,10,20,9,15,160,160,126,126,2,7,3,3,0.3,0.3
2026-07-21T1300,2919A,116.7022,39.5454,廊坊市,河北工业大学,,50,NA,20,11,16,157,157,128,128,2,5,1,2,0.3,0.3
2026-07-21T1300,2536A,103.7629,29.5844,乐山市,牛耳桥,臭氧1小时(O3_1h),93,45,39,20,16,194,194,83,83,18,22,8,7,0.9,0.8
2026-07-21T1300,2537A,103.7501,29.6002,乐山市,市第三水厂,臭氧1小时(O3_1h),85,46,42,20,16,188,188,82,82,13,25,5,5,0.8,0.7
2026-07-21T1300,2538A,103.7571,29.5664,乐山市,市监测站,臭氧1小时(O3_1h),102,47,38,18,15,204,204,99,99,13,14,8,7,0.9,0.9
2026-07-21T1300,3361A,103.7313,29.563,乐山市,理工大学,臭氧1小时(O3_1h),106,41,40,12,16,212,212,93,93,12,17,11,9,1.0,1
2026-07-21T1300,2599A,100.2497,26.8802,丽江市,丽江古城,,37,12,14,3,8,116,116,90,90,6,7,4,3,0.5,0.6
2026-07-21T1300,2600A,100.2203,26.8906,丽江市,市中心,,35,12,11,6,7,109,109,89,85,6,6,6,5,0.4,0.4
2026-07-21T1300,1267A,119.9141,28.4513,丽水市,监测站大楼,,23,18,15,9,6,71,71,39,39,6,9,5,5,0.5,0.5
2026-07-21T1300,1268A,119.93,28.4589,丽水市,莲都小学,,24,20,15,8,6,74,74,40,40,3,6,/,/,/,/
2026-07-21T1300,2568A,102.2503,31.8896,阿坝藏族羌族自治州,马师校,NA,NA,9,26,9,7,104,104,56,56,NA,5,4,4,0.4,0.4
2026-07-21T1300,3994A,102.2174,31.9016,阿坝藏族羌族自治州,马尔康中学西区,,32,NA,15,11,9,100,100,58,58,3,4,3,3,0.2,0.2
2026-07-21T1300,2695A,80.2899,41.1684,阿克苏地区,电视台,颗粒物(PM10),62,66,79,29,31,107,107,62,62,10,23,6,7,0.6,0.8
2026-07-21T1300,2696A,80.2592,41.1541,阿克苏地区,艺术中心,,49,49,61,20,37,103,103,62,62,32,39,4,5,0.4,0.6
2026-07-21T1300,2205A,105.699,38.8409,阿拉善盟,蒙二幼,,46,16,49,3,12,145,145,142,142,5,5,9,10,0.3,0.3
2026-07-21T1300,2206A,105.7198,38.8508,阿拉善盟,环保局新楼,,43,21,43,3,10,135,135,136,136,3,3,9,9,0.3,0.4
2026-07-21T1300,2708A,88.1266,47.8515,阿勒泰地区,市站,,39,18,20,9,7,122,122,98,98,9,10,7,7,0.4,0.4
2026-07-21T1300,4166A,88.1198,47.7931,阿勒泰地区,阿勒泰路33号,,37,12,20,3,3,118,118,99,99,4,7,6,6,0.3,0.3
2026-07-21T1300,2630A,80.1171,32.4999,阿里地区,阿里监测站,,42,7,13,3,3,132,132,137,135,4,3,5,5,0.1,0.1
2026-07-21T1300,3192A,80.0906,32.5029,阿里地区,阿里藏医院,,43,8,11,3,3,135,135,137,136,1,2,5,5,0.2,0.2
2026-07-21T1300,2644A,109.0088,32.6974,安康市,汉滨区检察院,,36,36,37,16,16,109,109,57,57,5,9,2,3,0.5,0.3
2026-07-21T1300,4054A,109.0324,32.6913,安康市,市邮政管理局,,40,40,40,20,17,124,124,72,72,5,9,2,4,0.7,0.7
2026-07-21T1300,2291A,117.0806,30.5181,安庆市,环科院,,15,15,12,10,5,40,40,32,32,9,15,8,8,0.7,0.7
2026-07-21T1300,2292A,117.0331,30.5118,安庆市,马山宾馆,,16,13,11,11,6,32,32,30,30,13,13,2,2,0.5,0.6
2026-07-21T1300,2294A,116.9897,30.6146,安庆市,安庆大学,,27,27,16,3,7,47,47,30,30,6,11,3,4,0.4,0.5
2026-07-21T1300,3173A,117.0598,30.5351,安庆市,市人大,,15,15,12,10,7,43,43,34,34,2,8,4,4,0.6,0.6
2026-07-21T1300,3123A,105.9408,26.2431,安顺市,凤凰山,,38,18,30,17,20,120,120,76,76,4,12,8,9,0.5,0.6
2026-07-21T1300,3124A,105.9443,26.2567,安顺市,金钟山,,42,NA,26,24,19,133,133,95,95,4,6,9,10,0.5,0.5
2026-07-21T1300,3125A,105.8983,26.248,安顺市,娄家坡,NA,NA,29,28,28,19,133,133,90,90,NA,7,NA,9,0.2,0.3
2026-07-21T1300,1819A,114.3552,36.1017,安阳市,红庙街,臭氧1小时(O3_1h),57,40,39,28,28,165,165,120,120,5,7,3,4,0.4,0.5
2026-07-21T1300,1820A,114.361,36.0681,安阳市,银杏小区,臭氧1小时(O3_1h),67,41,46,32,29,173,173,122,122,8,11,1,2,0.5,0.6
2026-07-21T1300,3141A,114.3921,36.0879,安阳市,信访局,臭氧1小时(O3_1h),85,42,39,26,28,188,188,132,132,3,6,3,3,1.0,0.7
2026-07-21T1300,3669A,114.4706,36.0634,安阳市,左辅环卫站,NA,NA,84,48,34,28,154,154,106,106,NA,8,3,3,0.6,0.6
2026-07-21T1300,4117A,114.2918,36.0769,安阳市,钢三路198号,,48,NA,27,26,27,151,151,104,104,1,5,2,2,0.6,0.6
2026-07-21T1300,1748A,123.0441,41.1201,鞍山市,深沟寺,,45,44,30,24,20,141,141,91,91,11,10,9,8,1.0,0.8
2026-07-21T1300,1749A,123.011,41.0931,鞍山市,太阳城,,48,48,34,25,26,150,150,89,89,13,13,11,8,1.1,0.9
2026-07-21T1300,1750A,123.0483,41.1445,鞍山市,太平,,50,50,36,23,22,138,138,94,94,9,10,9,7,0.9,0.8
2026-07-21T1300,1751A,122.964,41.0968,鞍山市,铁西三道街,,48,44,41,25,27,153,153,95,95,7,13,8,6,1.1,1
2026-07-21T1300,1753A,123.0219,41.0822,鞍山市,明达新区,,45,41,31,24,24,142,142,91,91,10,10,8,4,1.2,1.1
2026-07-21T1300,4201A,122.944647,41.082639,鞍山市,兴盛南路290号,,48,42,48,27,30,153,153,94,94,12,21,5,4,0.8,0.9
2026-07-21T1300,2195A,107.4206,40.7609,巴彦淖尔市,附二中,,42,28,29,9,12,134,134,90,90,6,13,15,15,0.6,0.6
2026-07-21T1300,2196A,107.37,40.7372,巴彦淖尔市,市环保大楼,,46,46,42,8,8,132,132,94,94,5,7,12,11,0.6,0.6
2026-07-21T1300,1956A,86.1476,41.7529,巴音郭楞蒙古自治州,孔雀公园,,50,50,73,8,22,125,125,93,93,6,18,7,7,0.2,0.3
2026-07-21T1300,1957A,86.1971,41.7166,巴音郭楞蒙古自治州,棉纺厂,颗粒物(PM10),59,62,92,3,30,130,130,100,100,6,20,/,/,/,/
2026-07-21T1300,1958A,86.236,41.7172,巴音郭楞蒙古自治州,经济开发区,,39,26,56,12,24,124,124,104,104,6,10,4,4,0.2,0.2
2026-07-21T1300,3181A,106.776805,31.852614,巴中市,市五中,,50,42,48,21,25,158,158,92,92,6,12,10,10,0.5,0.5
2026-07-21T1300,3183A,106.7419,31.8654,巴中市,圣泉水务公司,臭氧1小时(O3_1h),59,48,44,19,23,167,167,105,105,6,13,10,10,0.6,0.6
2026-07-21T1300,3616A,106.7617,31.8343,巴中市,市中心医院,NA,NA,NA,49,NA,27,160,160,90,90,NA,16,12,11,0.8,0.5
2026-07-21T1300,2235A,122.7909,45.608,白城市,洮北区环保局,NA,NA,31,19,23,13,117,117,88,88,NA,3,2,3,0.4,0.3
2026-07-21T1300,2236A,122.8741,45.5725,白城市,市环保局,,42,31,17,29,13,115,115,85,85,3,9,4,4,0.4,0.3
2026-07-21T1300,2231A,126.4219,41.9172,白山市,喜丰,,38,18,39,3,15,121,121,54,54,4,15,14,14,0.6,0.7
2026-07-21T1300,2232A,126.4082,41.9416,白山市,环保局,,36,17,28,7,14,115,115,56,56,4,8,12,11,0.7,0.8
2026-07-21T1300,2647A,104.1727,36.5448,白银市,第三小学,,38,24,45,23,19,121,121,85,85,10,14,18,10,0.4,0.5
2026-07-21T1300,2648A,104.1467,36.5482,白银市,动力公司,,38,28,36,9,17,119,119,83,83,6,9,14,5,0.4,0.5
2026-07-21T1300,2512A,106.6102,23.901,百色市,市监测站,,31,31,28,14,14,78,78,48,48,4,9,7,9,0.4,0.4
2026-07-21T1300,2513A,106.6524,23.8842,百色市,市中心血站,,33,33,32,18,13,93,93,46,46,5,12,7,10,0.5,0.5
2026-07-21T1300,4133A,106.6273,23.8798,百色市,龙景西路,,32,32,31,15,17,93,93,46,46,4,10,12,15,0.4,0.4
2026-07-21T1300,2270A,117.396,32.9389,蚌埠市,工人疗养院,,33,27,17,9,3,104,104,64,64,19,17,8,7,0.3,0.2
2026-07-21T1300,2271A,117.3606,32.9428,蚌埠市,百货大楼,,33,20,10,9,3,104,104,67,67,14,16,10,9,0.6,0.6
2026-07-21T1300,2273A,117.4183,32.8909,蚌埠市,蚌埠学院,,33,9,6,3,2,105,105,73,73,2,5,5,5,0.3,0.3
2026-07-21T1300,2274A,117.3534,32.9672,蚌埠市,淮上区政府,,36,22,12,10,3,113,113,67,67,13,14,7,7,0.3,0.3
2026-07-21T1300,2275A,117.3143,32.8977,蚌埠市,高新区,,31,9,8,3,1,97,97,75,75,3,6,9,9,0.3,0.3
2026-07-21T1300,3715A,117.3091,32.9314,蚌埠市,蚌埠田家炳中学,,34,20,16,3,1,106,106,71,71,2,8,7,7,0.4,0.4
2026-07-21T1300,1585A,109.8761,40.6533,包头市,市环境监测站,,42,38,45,11,20,134,134,77,77,18,32,17,11,0.8,0.7
2026-07-21T1300,1587A,109.9992,40.5843,包头市,包头八中,,42,29,46,12,20,132,132,73,73,9,25,11,19,0.4,0.7
2026-07-21T1300,1589A,109.8641,40.6288,包头市,惠龙物流,,40,29,37,10,19,125,125,79,79,19,23,11,14,0.5,0.5
2026-07-21T1300,1007A,116.2879,39.9613,北京市,海淀万柳,,47,47,39,30,25,143,143,68,68,15,19,3,2,0.5,0.4
2026-07-21T1300,1008A,116.6635,40.1349,北京市,顺义新城,,45,29,33,25,25,143,143,89,89,4,10,1,2,0.5,0.5
2026-07-21T1300,1009A,116.6275,40.327,北京市,怀柔镇,颗粒物(PM10),55,56,27,35,17,134,134,100,100,7,7,3,3,0.6,0.5
2026-07-21T1300,1010A,116.2295,40.217,北京市,昌平镇,,43,40,28,27,18,136,136,80,80,9,16,2,2,0.9,0.8
2026-07-21T1300,1011A,116.3968,39.982,北京市,奥体中心,,45,28,35,19,25,142,142,78,78,8,16,2,2,0.6,0.6
2026-07-21T1300,3418A,116.8336,40.4095,北京市,密云新城,,49,48,18,34,11,126,126,98,96,7,6,3,2,0.6,0.4
2026-07-21T1300,3671A,116.0879,39.9725,北京市,门头沟三家店,,44,34,36,27,22,140,140,72,72,10,16,3,2,0.6,0.6
2026-07-21T1300,3672A,116.1507,39.8246,北京市,丰台云岗,,43,30,36,23,21,137,137,74,74,7,11,3,3,0.4,0.4
2026-07-21T1300,3674A,115.9578,39.7602,北京市,房山燕山,,49,45,39,34,26,127,127,80,80,6,7,1,1,0.5,0.5
2026-07-21T1300,3675A,116.4669,39.7734,北京市,大兴旧宫,,48,13,32,8,18,153,153,95,95,5,13,1,1,0.5,0.5
2026-07-21T1300,3694A,115.9859,40.4562,北京市,延庆石河营,,36,14,18,8,13,115,115,86,86,6,6,3,2,0.4,0.3
2026-07-21T1300,3695A,116.6151,40.3052,北京市,怀柔新城,,42,42,25,26,18,121,121,82,82,5,4,1,1,0.8,0.7
2026-07-21T1300,3696A,116.2542,39.8764,北京市,丰台小屯,,45,18,36,13,23,144,144,72,72,7,11,3,3,0.7,0.8
2026-07-21T1300,3697A,116.8399,40.3843,北京市,密云镇,细颗粒物(PM2.5),82,NA,20,51,13,120,120,89,89,6,8,2,2,0.6,0.5
2026-07-21T1300,4057A,115.9423,40.4431,北京市,延庆百泉,,42,17,20,11,13,133,133,90,90,3,4,1,1,0.4,0.4
2026-07-21T1300,4058A,116.6598,39.9164,北京市,通州新华,NA,NA,7,29,6,20,146,146,103,103,8,19,NA,3,0.5,0.5
2026-07-21T1300,4182A,116.1942,39.9158,北京市,石景山八角,,50,36,38,24,24,160,160,86,86,5,13,3,3,0.5,0.5
2026-07-21T1300,4194A,117.078628,40.151726,北京市,平谷新城,,42,27,35,17,26,133,133,71,71,5,7,1,1,0.5,0.6
2026-07-21T1300,1761A,123.8274146,41.31234549,本溪市,大峪,臭氧1小时(O3_1h),57,45,35,27,21,165,165,87,87,8,13,6,6,1.2,0.6
2026-07-21T1300,1763A,123.7169,41.3094,本溪市,彩屯,,40,20,35,10,23,126,126,84,84,3,11,7,7,0.8,1
2026-07-21T1300,1764A,123.7672166,41.28649327,本溪市,东明,NA,NA,60,41,34,23,158,158,95,95,12,15,8,5,NA,0.7
2026-07-21T1300,1765A,123.799345,41.266614,本溪市,新立屯,细颗粒物(PM2.5),72,70,33,46,21,165,165,97,97,18,19,13,8,2.5,0.9
2026-07-21T1300,1766A,123.829144,41.336777,本溪市,威宁,臭氧1小时(O3_1h),65,NA,34,38,22,172,172,84,84,11,15,10,8,1.2,0.7
2026-07-21T1300,2587A,105.287,27.3133,毕节市,八中,,47,25,34,8,16,148,148,80,80,9,17,9,9,0.4,0.5
2026-07-21T1300,2588A,105.3079,27.2987,毕节市,师专,,46,22,36,12,16,146,146,72,72,5,17,10,8,0.5,0.6
2026-07-21T1300,4263A,105.3688,27.3598,毕节市,工业大道,,47,14,21,13,15,150,150,73,73,6,23,9,9,/,/
2026-07-21T1300,1629A,117.9961,37.3604,滨州市,第二水厂,臭氧1小时(O3_1h),84,48,36,35,16,187,187,132,132,4,8,8,8,0.4,0.4
2026-07-21T1300,1630A,117.9789,37.3931,滨州市,北中新校,臭氧1小时(O3_1h),100,48,38,33,17,200,200,138,138,7,12,7,5,0.6,0.5
2026-07-21T1300,3514A,117.9379,37.3959,滨州市,中海酒店,臭氧1小时(O3_1h),90,44,27,27,15,192,192,134,134,3,7,11,9,0.5,0.2
2026-07-21T1300,3515A,117.9381509,37.35547456,滨州市,开发区一中,NA,NA,51,42,27,16,178,178,119,NA,3,6,NA,11,0.4,0.6
2026-07-21T1300,3516A,118.0914,37.6938,滨州市,金海六路,臭氧1小时(O3_1h),73,39,30,19,13,178,178,132,132,6,11,9,7,0.6,0.6
2026-07-21T1300,4028A,117.9955,37.3752,滨州市,滨州市西街道办事处,臭氧1小时(O3_1h),84,39,33,22,15,187,187,133,133,2,7,6,5,0.5,0.4
2026-07-21T1300,2311A,115.8071,33.8399,亳州市,污水处理厂,,46,12,19,3,9,147,147,90,90,3,6,2,4,0.4,0.4
2026-07-21T1300,2312A,115.7789,33.8519,亳州市,三国揽胜宫,,45,22,22,3,10,141,141,91,91,2,6,4,4,0.3,0.3
2026-07-21T1300,3332A,115.7631,33.803,亳州市,亳州学院,,48,10,13,3,10,151,151,96,96,3,7,1,2,0.3,0.4
2026-07-21T1300,2693A,82.0482,44.8553,博尔塔拉蒙古自治州,市党校,,46,46,44,3,15,115,115,75,75,8,6,4,4,0.3,0.2
2026-07-21T1300,2694A,82.0805,44.8966,博尔塔拉蒙古自治州,市环保局,,44,44,38,6,10,128,128,76,76,11,10,4,3,0.1,0.1
2026-07-21T1300,1071A,116.8733,38.2922,沧州市,沧县城建局,,45,17,20,17,16,144,144,111,111,2,5,4,4,0.1,0.1
2026-07-21T1300,1072A,116.8462,38.3189,沧州市,电视转播站,,49,29,34,22,15,155,155,115,115,5,6,2,2,0.1,0.1
2026-07-21T1300,1073A,116.8588,38.3161,沧州市,市环保局,,50,44,41,18,17,157,157,124,124,6,7,2,2,0,0
2026-07-21T1300,3324A,116.8011,38.294,沧州市,河北水利电力学院,,50,NA,17,26,16,160,160,117,117,4,7,2,1,0.2,0.2
2026-07-21T1300,2622A,97.1813,31.1289,昌都市,昌都监测站,,37,12,18,3,4,117,117,85,85,4,7,2,2,0.4,0.4
2026-07-21T1300,3719A,97.1707,31.1428,昌都市,昌都会议中心,,41,8,12,3,7,131,131,98,98,3,4,2,2,0.2,0.2
2026-07-21T1300,2692A,87.2722,44.0298,昌吉回族自治州,新区政务中心,,41,38,36,11,14,129,129,83,83,8,13,14,10,0.2,0.2
2026-07-21T1300,3613A,87.3069,44.0093,昌吉回族自治州,亚心广场,,45,41,42,7,16,142,142,96,96,8,20,11,9,0.4,0.3
2026-07-21T1300,4164A,87.2057,43.9289,昌吉回族自治州,财政所,NA,NA,54,40,8,11,132,132,89,89,NA,9,9,7,0.2,0.1
2026-07-21T1300,1120A,125.2874,43.9024,长春市,客车厂,,44,36,28,14,18,139,139,106,106,6,12,4,4,0.6,0.6
2026-07-21T1300,1121A,125.2943,43.8508,长春市,邮电学院,,48,39,23,19,17,151,151,103,103,6,7,7,6,0.4,0.5
2026-07-21T1300,1122A,125.3648,43.8745,长春市,劳动公园,,46,36,22,20,18,145,145,102,102,8,12,6,6,0.3,0.4
2026-07-21T1300,1123A,125.3233,43.8781,长春市,园林处,,48,30,25,19,17,151,151,46,NA,7,10,3,2,0.5,0.5
2026-07-21T1300,1124A,125.4604,43.7904,长春市,净月潭,,39,31,20,18,19,122,122,80,80,4,4,6,6,0.5,0.4
2026-07-21T1300,1126A,125.38,43.8422,长春市,经开区环卫处,NA,NA,37,24,16,17,131,131,94,94,NA,13,3,3,0.5,0.4
2026-07-21T1300,1127A,125.234,43.7761,长春市,高新区管委会,,47,35,21,16,15,149,149,92,92,4,8,5,4,0.4,0.4
2026-07-21T1300,1128A,125.1695,43.83,长春市,岱山公园,,43,30,36,14,19,135,135,98,98,9,20,2,2,0.4,0.4
2026-07-21T1300,4281A,125.334645,43.916281,长春市,北亚泰大街1068号,,43,29,27,19,18,135,135,101,101,9,13,3,3,0.6,0.6
2026-07-21T1300,1335A,113.082,28.2421,长沙市,经开区环保局,,20,19,28,12,18,64,64,35,35,3,12,4,4,0.6,0.6
2026-07-21T1300,1336A,112.8873,28.2202,长沙市,高开区环保局,,29,20,25,20,16,78,78,43,43,2,6,4,4,0.8,0.8
2026-07-21T1300,1337A,113.0785,28.2012,长沙市,马坡岭,,23,23,28,12,18,68,68,38,38,5,10,6,6,0.4,0.5
2026-07-21T1300,1338A,112.9448,28.1894,长沙市,湖南师范大学,,26,26,25,13,16,80,80,46,46,1,6,6,7,0.4,0.4
2026-07-21T1300,1339A,113.0177,28.1322,长沙市,雨花区环保局,,28,28,24,14,17,68,68,40,40,5,11,5,5,0.8,0.8
2026-07-21T1300,1340A,112.9795,28.2593,长沙市,伍家岭,,26,24,28,11,17,81,81,41,41,4,10,3,3,0.5,0.5
2026-07-21T1300,1341A,113.002,28.1944,长沙市,火车新站,,30,30,30,18,17,63,63,41,41,4,7,10,10,0.5,0.6
2026-07-21T1300,1342A,112.9846,28.1177,长沙市,天心区环保局,,30,24,25,21,17,80,80,48,48,6,11,3,3,0.4,0.4
2026-07-21T1300,1343A,112.8906,28.1307,长沙市,湖南中医药大学,,34,34,24,19,14,82,82,43,43,4,11,6,6,0.8,0.7
2026-07-21T1300,1727A,113.1146,36.1547,长治市,清华站,臭氧1小时(O3_1h),52,39,44,26,30,161,161,137,137,4,5,7,8,0.7,0.7
2026-07-21T1300,1730A,113.0887,36.2126,长治市,审计局,,50,44,46,35,33,160,160,133,133,2,4,9,9,0.8,0.7
2026-07-21T1300,1731A,113.0845,36.1856,长治市,长治八中,细颗粒物(PM2.5),66,51,55,43,32,150,150,128,128,4,5,10,10,1.0,0.8
2026-07-21T1300,2845A,113.1561,36.1912,长治市,德盛苑,臭氧1小时(O3_1h),59,45,46,33,32,167,167,139,139,8,8,10,10,0.8,0.9
2026-07-21T1300,3568A,113.0603,36.0464,长治市,向阳小学,颗粒物(PM10),51,51,57,27,32,153,153,126,126,2,6,6,6,0.4,0.4
2026-07-21T1300,3569A,112.8788,36.315,长治市,屯留一中,,46,39,51,32,34,126,126,91,91,5,9,9,9,1.2,1.3
2026-07-21T1300,4189A,113.113092,36.199482,长治市,英华南巷50号,"颗粒物(PM10),臭氧1小时(O3_1h)",53,54,54,28,36,162,162,134,134,3,5,10,11,0.6,0.5
2026-07-21T1300,4190A,113.23666,36.33435,长治市,学府街1号,臭氧1小时(O3_1h),62,57,52,39,36,169,169,128,128,3,3,4,6,0.6,0.6
2026-07-21T1300,1854A,111.696,28.9725,常德市,市二中,,43,43,32,19,22,127,127,62,62,4,11,6,6,1.0,1
2026-07-21T1300,3138A,111.7152,29.0288,常德市,武陵区永安,,40,31,31,18,24,128,128,79,79,4,6,6,6,0.5,0.5
2026-07-21T1300,3139A,111.6891,28.9881,常德市,鼎城区玉霞,,44,26,31,20,25,139,139,66,66,5,8,9,8,0.8,0.8
2026-07-21T1300,3140A,111.6651,29.0526,常德市,武陵区长庚,,39,26,30,24,26,124,124,80,80,3,6,8,8,0.7,0.8
2026-07-21T1300,1196A,119.9524,31.7586,常州市,市监测站,,41,8,14,3,9,129,129,75,75,3,7,6,7,0.4,0.5
2026-07-21T1300,1200A,119.9351,31.703,常州市,武进监测站,,37,8,17,3,12,117,117,68,68,6,10,4,4,0.4,0.6
2026-07-21T1300,3002A,119.9701,31.813,常州市,行政中心,,38,20,16,3,8,119,119,67,67,6,7,5,6,0.3,0.4
2026-07-21T1300,3003A,120.0434,31.7726,常州市,经开区,,41,11,19,3,8,131,131,75,75,6,8,5,3,0.7,0.8
2026-07-21T1300,3010A,119.8919,31.7892,常州市,钟楼,,38,6,15,3,9,121,121,69,69,7,12,7,7,0.2,0.3
2026-07-21T1300,3429A,119.8595,31.706,常州市,武进经发区,,37,10,22,6,11,118,118,72,72,2,5,4,5,0.7,0.9
2026-07-21T1300,3430A,119.5812,31.7256,常州市,金坛城区,,37,17,14,7,12,118,118,76,76,4,6,6,6,0.5,0.6
2026-07-21T1300,4089A,119.9551,31.863,常州市,崇义南街5-H号,,34,9,15,3,12,108,108,64,64,21,10,6,6,0.7,0.8
2026-07-21T1300,2220A,120.4318,41.588,朝阳市,西梁,,38,38,35,21,22,117,117,84,84,5,8,10,9,0.9,0.9
2026-07-21T1300,2221A,120.452,41.565,朝阳市,河畔小区,,36,30,29,22,25,115,115,91,90,4,6,10,10,1.0,0.9
2026-07-21T1300,2222A,120.4176,41.5648,朝阳市,八里堡,,43,43,35,12,25,107,107,74,74,4,8,8,7,0.8,0.8
2026-07-21T1300,3026A,116.6179,23.6608,潮州市,市政府,颗粒物(PM10),55,57,28,18,17,88,88,58,58,6,11,3,4,0.7,0.7
2026-07-21T1300,4036A,116.646,23.676,潮州市,金山,NA,NA,NA,23,NA,12,NA,NA,66,NA,NA,8,NA,2,NA,0.4
2026-07-21T1300,2473A,113.0116,25.8228,郴州市,市职中,,23,23,19,14,12,66,66,42,42,2,5,7,7,0.8,0.8
2026-07-21T1300,2475A,113.0381,25.8074,郴州市,市审计局,,26,26,19,13,13,64,64,43,43,1,4,7,11,/,/
2026-07-21T1300,2476A,113.0348,25.7757,郴州市,市环保局,,20,14,17,12,11,64,64,46,46,3,6,7,12,0.5,0.5
2026-07-21T1300,4252A,113.0138,25.8011,郴州市,好美居路49号,,20,18,18,3,8,64,64,47,47,5,6,4,9,/,/
2026-07-21T1300,1431A,103.9727,30.7242,成都市,金泉两河,臭氧1小时(O3_1h),102,30,40,18,24,203,203,95,95,12,17,4,4,0.5,0.5
2026-07-21T1300,1432A,104.1423,30.6765,成都市,十里店,臭氧1小时(O3_1h),94,30,40,28,26,195,195,103,103,12,21,7,8,0.6,0.6
2026-07-21T1300,1433A,104.0594,30.5765,成都市,三瓦窑,臭氧1小时(O3_1h),87,47,48,22,28,189,189,97,97,17,40,8,9,0.6,0.7
2026-07-21T1300,1434A,104.1122,30.6306,成都市,沙河铺,臭氧1小时(O3_1h),98,47,43,26,28,198,198,93,93,13,25,8,7,0.6,0.7
2026-07-21T1300,2880A,104.0219,30.6561,成都市,大石西路,臭氧1小时(O3_1h),101,43,38,23,25,201,201,97,97,16,19,6,6,0.7,0.7
2026-07-21T1300,3136A,104.2724,30.559,成都市,龙泉驿区区政府,臭氧1小时(O3_1h),80,31,31,24,22,184,184,132,132,8,12,6,7,0.6,0.7
2026-07-21T1300,3357A,104.0028,30.6891,成都市,金博路,臭氧1小时(O3_1h),100,NA,29,21,22,200,200,88,88,14,27,10,11,0.8,0.9
2026-07-21T1300,3359A,104.056,30.5228,成都市,华阳,臭氧1小时(O3_1h),78,41,41,21,26,182,182,115,115,9,18,4,5,0.7,0.7
2026-07-21T1300,3488A,104.387954,30.746684,成都市,青白江技师分院,臭氧1小时(O3_1h),98,32,33,22,22,198,198,106,106,10,27,8,7,0.6,0.7
2026-07-21T1300,3489A,104.0788,30.4054,成都市,科学城,臭氧1小时(O3_1h),68,28,32,20,19,174,174,108,108,5,16,8,10,0.5,0.6
2026-07-21T1300,4011A,103.8505,30.6946,成都市,光华大道三段,臭氧1小时(O3_1h),74,32,34,21,20,179,179,83,83,10,16,6,7,0.6,0.6
2026-07-21T1300,4144A,104.3257,30.6406,成都市,八角井街185号,臭氧1小时(O3_1h),110,50,43,37,22,219,219,121,121,12,15,7,7,0.7,0.6
2026-07-21T1300,4224A,104.2433276,30.53529463,成都市,鲸龙路1057号,臭氧1小时(O3_1h),85,43,41,21,24,188,188,124,124,9,28,10,12,0.6,0.7
2026-07-21T1300,1062A,117.9531,40.908,承德市,铁路,,41,25,30,16,16,129,129,84,84,9,15,7,6,0.6,0.5
2026-07-21T1300,1063A,117.9397,40.9763,承德市,中国银行,,43,19,30,14,15,135,135,84,84,3,8,6,5,0.6,0.5
2026-07-21T1300,4073A,117.9462,40.95,承德市,杏林街1号,,43,40,29,30,21,131,131,76,76,4,7,6,5,0.5,0.4
2026-07-21T1300,4274A,117.7994,40.9605,承德市,滨河大街98号,,45,25,26,21,14,141,141,87,87,6,7,12,7,0.8,0.6
2026-07-21T1300,2314A,117.4698,30.6617,池州市,池州学院,,23,14,13,6,4,73,73,43,43,7,13,4,4,0.7,1
2026-07-21T1300,3237A,117.4918,30.6617,池州市,展览馆,,23,16,11,8,5,71,71,38,38,6,11,2,2,0.5,0.8
2026-07-21T1300,3333A,117.5626,30.695,池州市,第八中学,NA,NA,11,11,6,6,61,61,44,44,NA,6,4,4,0.3,0.5
2026-07-21T1300,3334A,117.5037,30.6242,池州市,第十二中学,,20,20,14,11,4,59,59,35,35,5,12,5,5,0.8,1.1
2026-07-21T1300,1744A,118.9229,42.2816,赤峰市,松山一中,NA,NA,10,15,3,13,147,147,138,138,4,8,6,7,NA,0.7
2026-07-21T1300,1745A,118.9588,42.2733,赤峰市,哈达街,,45,10,24,3,16,142,142,127,127,7,11,12,12,0.4,0.5
2026-07-21T1300,1746A,118.8792,42.2551,赤峰市,天义路,,39,9,14,3,14,124,124,114,114,7,10,7,9,0.4,0.5
2026-07-21T1300,3058A,119.2656,42.0356,赤峰市,银河街,,43,28,36,9,24,137,137,112,112,8,11,8,22,0.3,0.5
2026-07-21T1300,3286A,118.9359,42.3146,赤峰市,桥北物流园区,,44,16,22,3,13,139,139,124,124,8,10,4,4,0.6,0.7
2026-07-21T1300,2521A,107.3473,22.4137,崇左市,市环保局江州分局,,30,30,24,18,10,65,65,32,32,7,11,6,6,0.5,0.5
2026-07-21T1300,4256A,107.375,22.3736,崇左市,石景林东路7号,,29,29,19,16,10,70,70,37,37,6,11,5,5,0.5,0.4
2026-07-21T1300,3207A,118.31131,32.3033,滁州市,市政府原办公楼,,45,NA,8,15,14,143,143,87,87,4,8,6,6,0.3,0.3
2026-07-21T1300,3331A,118.3268,32.2633,滁州市,图书馆,,42,8,9,3,5,132,132,82,82,6,7,7,7,0.3,0.3
2026-07-21T1300,4101A,118.3196,32.3335,滁州市,银山路666号,臭氧1小时(O3_1h),53,17,10,16,9,162,162,90,90,8,8,5,4,0.4,0.3
2026-07-21T1300,4102A,118.3426,32.2979,滁州市,黄山路555号,,40,17,14,8,9,127,127,80,80,3,7,8,6,0.3,0.3
2026-07-21T1300,2606A,101.5379,25.0492,楚雄彝族自治州,市经济开发区,,35,22,25,15,14,110,110,48,48,6,13,2,3,0.8,0.8
2026-07-21T1300,4153A,101.5536,25.0343,楚雄彝族自治州,团结路562号,NA,NA,33,26,14,14,113,113,52,52,6,12,2,3,NA,0.7
2026-07-21T1300,2549A,107.5087,31.2186,达州市,市环境监测站,"颗粒物(PM10),臭氧1小时(O3_1h)",53,54,57,21,24,162,162,83,83,11,20,8,7,0.3,0.4
2026-07-21T1300,2550A,107.4988,31.2132,达州市,凤凰小区,臭氧1小时(O3_1h),63,51,59,25,27,170,170,95,95,8,18,7,6,0.3,0.4
2026-07-21T1300,2551A,107.5081,31.1987,达州市,达县机关宾馆,臭氧1小时(O3_1h),62,48,59,21,28,169,169,98,98,14,28,6,6,0.3,0.4
2026-07-21T1300,2552A,107.4644,31.2124,达州市,市政中心,臭氧1小时(O3_1h),67,57,66,23,25,173,173,95,95,12,23,8,7,0.2,0.3
2026-07-21T1300,2614A,100.2168,25.5818,大理白族自治州,大理市环境监测站,,35,11,15,3,8,112,112,98,98,9,9,5,5,0.3,0.3
2026-07-21T1300,2615A,100.1542,25.7055,大理白族自治州,大理古城,,36,18,18,10,11,113,113,73,73,6,12,6,6,0.5,0.6
2026-07-21T1300,1109A,121.6119,38.974,大连市,甘井子,,35,14,20,8,15,109,109,93,93,27,9,8,8,0.5,0.6
2026-07-21T1300,1110A,121.565,38.9509,大连市,周水子,,34,20,22,8,12,107,107,84,84,14,14,7,6,0.7,0.7
2026-07-21T1300,1111A,121.5637,38.8849,大连市,星海三站,,37,12,20,3,14,117,117,95,95,7,3,7,8,0.7,0.8
2026-07-21T1300,1112A,121.6301,38.9117,大连市,青泥洼桥,,34,8,17,3,14,108,108,86,86,1,3,8,8,0.7,0.7
2026-07-21T1300,1113A,121.6248,38.8643,大连市,傅家庄,,35,11,16,3,12,111,111,88,88,3,3,6,7,0.7,0.8
2026-07-21T1300,1114A,121.5117,38.8636,大连市,七贤岭,,36,14,21,13,12,115,115,86,86,5,6,6,6,0.7,0.6
2026-07-21T1300,1116A,121.7507,39.1339,大连市,金州,,47,33,21,16,14,148,148,95,95,10,11,11,11,0.6,0.6
2026-07-21T1300,1117A,121.7811,39.0495,大连市,开发区,,36,17,28,3,16,113,113,90,90,7,15,10,10,0.6,0.7
2026-07-21T1300,1118A,121.9762,39.0631,大连市,双D港,,30,8,14,6,10,94,94,71,71,10,5,6,6,0.4,0.4
2026-07-21T1300,4082A,121.2548,38.8188,大连市,旅顺,,31,12,19,6,13,97,97,82,82,11,11,6,6,0.5,0.5
2026-07-21T1300,1789A,124.8085,46.0381,大庆市,大同区,NA,NA,NA,34,NA,17,132,132,103,103,6,14,7,6,0.7,0.4
2026-07-21T1300,1790A,125.1166,46.5255,大庆市,龙凤区,,33,17,22,9,17,105,105,80,80,7,14,7,7,0.1,0.1
2026-07-21T1300,1791A,124.8894,46.4007,大庆市,红岗区,,34,16,21,9,15,106,106,86,86,2,7,6,6,0.6,0.5
2026-07-21T1300,1792A,125.1391,46.578,大庆市,萨尔图区,,35,27,29,18,18,110,110,82,82,10,11,7,7,0.4,0.4
2026-07-21T1300,1793A,124.9026,46.6217,大庆市,让胡路区,,34,24,29,16,19,108,108,100,100,5,12,5,4,0.5,0.5
2026-07-21T1300,3481A,125.127,46.6277,大庆市,萨区政府监测点,,36,30,27,15,18,115,115,89,89,1,3,6,6,0.3,0.3
2026-07-21T1300,1723A,113.2926,40.0759,大同市,云冈宾馆,,49,39,46,12,12,155,155,92,92,13,19,12,9,0.6,0.6
2026-07-21T1300,1724A,113.3437,40.0921,大同市,大同大学,臭氧1小时(O3_1h),55,48,52,11,16,164,164,93,93,8,20,9,9,0.5,0.5
2026-07-21T1300,1725A,113.2637,40.129,大同市,安家小村,颗粒物(PM10),65,71,41,20,16,168,168,107,107,11,16,12,8,0.4,0.3
2026-07-21T1300,3282A,113.3399,40.0586,大同市,大同市卫生学校,臭氧1小时(O3_1h),58,34,42,11,13,166,166,101,101,8,19,8,7,0.6,0.6
2026-07-21T1300,3565A,113.1371,40.1122,大同市,云冈站,颗粒物(PM10),60,64,46,16,17,159,159,83,83,10,13,10,7,0.6,0.6
2026-07-21T1300,3566A,113.1186,40.2556,大同市,图书馆,,50,46,39,19,14,158,158,84,84,10,11,12,7,0.9,0.8
2026-07-21T1300,3567A,113.5931,40.0459,大同市,区一中,,50,44,26,3,10,157,157,107,107,9,10,9,8,0.4,0.3
2026-07-21T1300,4199A,113.2798248,40.09972476,大同市,魏都大道141号,颗粒物(PM10),54,55,44,14,16,148,148,82,82,15,21,12,8,0.6,0.5
2026-07-21T1300,2269A,124.1068,50.4091,大兴安岭地区,科技局,,29,NA,23,20,15,74,74,47,47,2,5,7,7,0.4,0.4
2026-07-21T1300,3663A,124.117,50.4279,大兴安岭地区,红旗社区,,29,NA,13,20,14,75,75,57,57,3,7,5,5,0.3,0.3
2026-07-21T1300,1600A,124.33,40.0625,丹东市,江湾东路,,40,30,33,17,20,128,128,74,74,9,13,5,5,0.5,0.6
2026-07-21T1300,1601A,124.4242,40.1513,丹东市,临江后街,,32,19,37,10,21,100,100,58,58,4,10,3,4,0.5,0.6
2026-07-21T1300,1602A,124.3935,40.1461,丹东市,元宝山,,29,17,30,10,20,92,92,51,51,5,10,2,2,0.6,0.8
2026-07-21T1300,1603A,124.3634,40.1093,丹东市,民主桥,,38,30,35,13,22,120,120,66,66,6,11,5,5,0.6,0.7
2026-07-21T1300,3541A,109.5726195,19.51688767,儋州市,第一中学子站,,35,35,41,16,17,60,60,59,59,2,4,2,2,0.5,0.5
2026-07-21T1300,3542A,109.5567,19.5187,儋州市,东坡学校子站,,36,36,36,15,19,61,61,60,60,1,3,4,4,0.5,0.6
2026-07-21T1300,2616A,98.5611,24.4273,德宏傣族景颇族自治州,德宏州监测站,,16,6,3,3,7,51,51,28,28,5,6,11,9,0.5,0.5
2026-07-21T1300,3677A,98.5887,24.4366,德宏傣族景颇族自治州,芒市人民政府综合楼,,20,20,23,3,4,49,49,25,25,6,7,8,8,0.5,0.6
2026-07-21T1300,1901A,104.424,31.1209,德阳市,东山公园,臭氧1小时(O3_1h),85,42,38,28,30,188,188,107,107,11,15,11,16,0.7,0.7
2026-07-21T1300,1902A,104.3827,31.1318,德阳市,西小区,臭氧1小时(O3_1h),98,62,55,33,32,198,198,107,107,24,26,19,26,0.6,0.7
2026-07-21T1300,1904A,104.3553,31.1091,德阳市,耐火材料厂,臭氧1小时(O3_1h),98,56,53,30,33,198,198,101,101,11,22,13,20,0.7,0.7
2026-07-21T1300,4145A,104.4144,31.1495,德阳市,市林业局,臭氧1小时(O3_1h),104,52,47,30,30,208,208,101,101,15,27,20,20,0.7,0.7
2026-07-21T1300,1622A,116.3034,37.4675,德州市,儿童乐园,臭氧1小时(O3_1h),53,39,36,34,26,162,162,126,126,4,8,10,10,0.8,0.7
2026-07-21T1300,1624A,116.2992,37.4449,德州市,监理站,臭氧1小时(O3_1h),52,41,38,28,22,161,161,128,128,6,11,12,13,0.4,0.4
2026-07-21T1300,3066A,116.2722,37.438,德州市,九衢泉纯净水厂,NA,NA,46,38,36,25,159,159,119,119,9,16,12,11,NA,0.6
2026-07-21T1300,3371A,116.3693,37.44,德州市,开发区人民医院,细颗粒物(PM2.5),74,NA,37,47,23,156,156,124,124,7,10,8,8,0.5,0.4
2026-07-21T1300,3511A,116.5687,37.3331,德州市,陵城艺术中心,臭氧1小时(O3_1h),60,51,37,36,23,168,168,119,NA,8,9,4,3,0.6,0.4
2026-07-21T1300,4292A,116.352738,37.420875,德州市,新河东路,细颗粒物(PM2.5),72,NA,33,46,21,162,162,120,120,10,13,12,12,0.7,0.6
2026-07-21T1300,2621A,99.7054,27.8319,迪庆藏族自治州,迪庆州站,,37,10,20,6,11,118,118,68,68,8,10,8,8,0.1,0.1
2026-07-21T1300,3180A,99.7122,27.8129,迪庆藏族自治州,质量技术监督局,,38,15,18,8,8,121,121,71,71,11,11,8,8,0.3,0.3
2026-07-21T1300,4257A,104.6092,35.5962,定西市,将台街,,45,21,54,3,18,143,143,86,86,4,12,7,5,0.2,0.2
2026-07-21T1300,4309A,104.6159,35.5701,定西市,正龙路62号,,42,34,55,3,17,132,132,82,82,7,9,6,6,0.4,0.3
2026-07-21T1300,4071A,114.9883,38.5232,定州市,交通局,颗粒物(PM10),60,64,46,10,12,156,156,105,105,10,12,2,2,0.5,0.5
2026-07-21T1300,4072A,115.0045,38.5136,定州市,第五中学,,46,37,37,22,14,145,145,100,100,7,9,5,4,0.4,0.3
2026-07-21T1300,1390A,113.7943,23.0132,东莞市,东城石井,,23,21,39,12,19,73,73,60,60,7,13,4,4,0.5,0.6
2026-07-21T1300,1391A,113.7384,22.9659,东莞市,南城西平,,23,14,34,6,17,73,73,49,49,9,14,8,7,0.4,0.4
2026-07-21T1300,3319A,113.7283,23.041,东莞市,万江金泰,,24,9,37,6,18,74,74,53,53,9,15,8,8,0.5,0.6
2026-07-21T1300,4129A,113.8666,23.1062,东莞市,裕兴路,,31,31,47,10,19,83,83,63,63,6,20,5,6,0.3,0.9
2026-07-21T1300,4130A,114.0076,22.9739,东莞市,教育路1号,,41,41,47,18,20,75,75,58,58,8,18,7,8,0.8,0.8
2026-07-21T1300,4131A,113.7981,22.8124,东莞市,长怡路1号,,24,24,50,11,20,51,51,56,56,14,13,5,5,0.6,0.6
2026-07-21T1300,1666A,118.6612,37.4313,东营市,市环保局,臭氧1小时(O3_1h),65,27,21,9,9,172,172,120,120,8,11,6,8,0.5,0.5
2026-07-21T1300,3036A,118.6903,37.4337,东营市,开发区管委会,臭氧1小时(O3_1h),64,37,29,6,8,171,171,122,122,9,12,4,5,0.4,0.4
2026-07-21T1300,3365A,118.5721,37.5654,东营市,垦利区民丰路,臭氧1小时(O3_1h),78,22,24,10,10,182,182,135,135,8,10,6,6,0.1,0.1
2026-07-21T1300,3498A,118.5063,37.8606,东营市,河口城区,臭氧1小时(O3_1h),70,22,21,10,8,176,176,144,144,7,9,13,10,0.4,0.4
2026-07-21T1300,3646A,118.4979,37.4623,东营市,胜利站,臭氧1小时(O3_1h),83,32,27,19,9,186,186,132,132,8,10,4,4,0.6,0.6
2026-07-21T1300,3734A,118.5753,37.4405,东营市,理想之城,臭氧1小时(O3_1h),100,19,23,19,9,200,200,134,134,8,11,6,5,0.5,0.6
2026-07-21T1300,1591A,110.0024,39.8127,鄂尔多斯市,综合楼,颗粒物(PM10),53,53,31,25,11,132,132,109,109,15,22,9,6,0.7,0.7
2026-07-21T1300,1592A,109.9485,39.8259,鄂尔多斯市,巴音孟克林场办事处,,41,36,27,14,10,129,129,112,112,14,23,7,7,0.6,0.6
2026-07-21T1300,1593A,109.7734,39.5987,鄂尔多斯市,康泽苑,,41,41,23,15,8,128,128,104,104,12,12,16,13,0.4,0.2
2026-07-21T1300,1594A,109.8121,39.5987,鄂尔多斯市,华泰汽车城,,41,41,25,18,8,117,117,88,88,11,20,13,10,0.8,0.7
2026-07-21T1300,1595A,109.9734,39.7884,鄂尔多斯市,奥林花园,,48,48,33,25,11,128,128,106,106,10,22,7,5,0.5,0.4
2026-07-21T1300,2436A,114.894,30.3989,鄂州市,市政府,,31,31,30,8,14,79,79,61,61,8,11,2,3,0.4,0.5
2026-07-21T1300,2437A,114.8986,30.3714,鄂州市,赵家坝,,27,25,29,6,12,86,86,59,59,8,10,6,9,0.6,0.7
2026-07-21T1300,3654A,114.8093,30.4091,鄂州市,精准医疗中心,,25,19,29,9,14,78,78,62,62,8,11,4,5,0.5,0.8
2026-07-21T1300,2454A,109.4978,30.2979,恩施土家族苗族自治州,湖北民院,,39,31,30,21,14,123,123,68,68,2,5,5,5,0.5,0.4
2026-07-21T1300,3549A,109.5061,30.3771,恩施土家族苗族自治州,龙凤新区,,38,24,25,13,15,120,120,66,66,4,5,6,6,0.4,0.4
2026-07-21T1300,2499A,108.3411,21.6159,防城港市,沙万,,28,28,22,14,10,32,32,44,40,22,18,4,4,0.8,0.6
2026-07-21T1300,2500A,108.3515,21.7733,防城港市,防城档案局,,38,35,18,26,11,35,35,48,48,14,11,5,4,0.8,0.6
2026-07-21T1300,2501A,108.3506,21.6414,防城港市,大海花园,,25,19,18,17,12,37,37,50,50,20,14,7,8,0.6,0.5
2026-07-21T1300,1371A,113.1293,23.0065,佛山市,湾梁,,18,NA,34,12,22,53,53,35,35,16,26,/,/,/,/
2026-07-21T1300,1372A,113.1082,23.0477,佛山市,华材职中,,25,22,33,17,22,40,40,35,35,18,15,7,7,0.4,0.4
2026-07-21T1300,1373A,113.1439,23.045,佛山市,南海气象局,,26,21,37,18,21,38,38,31,30,23,22,/,/,/,/
2026-07-21T1300,1374A,113.2879,22.8094,佛山市,顺德苏岗,,19,19,41,12,21,42,42,43,43,24,13,/,/,0.7,0.6
2026-07-21T1300,1376A,112.8384,22.8678,佛山市,高明孔堂,,15,13,35,6,16,48,48,43,43,5,7,/,/,/,/
2026-07-21T1300,1377A,112.8835,23.1584,佛山市,三水监测站,,29,29,31,18,23,26,26,23,23,23,27,5,3,0.8,0.8
2026-07-21T1300,1378A,112.8668,23.185,佛山市,三水云东海,,30,30,31,18,18,20,20,17,17,24,20,/,/,/,/
2026-07-21T1300,3625A,113.2568,22.7629,佛山市,容桂街道办,,19,14,33,13,21,34,34,44,42,26,14,/,/,/,/
2026-07-21T1300,1282A,119.2681,26.0506,福州市,师大,,26,23,25,13,8,83,83,45,45,3,8,4,4,0.4,0.4
2026-07-21T1300,1283A,119.2983,26.1028,福州市,五四北路,NA,NA,33,27,24,10,109,109,52,52,10,12,NA,4,0.5,0.4
2026-07-21T1300,1284A,119.2648,26.0769,福州市,杨桥西路,,38,37,25,26,10,96,96,48,48,5,10,4,4,/,/
2026-07-21T1300,3048A,119.5799,26.0937,福州市,九龙,,33,30,30,22,13,103,103,62,62,7,11,7,7,0.3,0.3
2026-07-21T1300,3526A,119.5188,25.9666,福州市,吴航,,33,33,29,19,17,104,104,62,62,7,10,6,7,0.5,0.6
2026-07-21T1300,4104A,119.3106,26.0648,福州市,路通桥巷6号,,43,43,26,15,14,96,96,50,50,4,8,/,/,/,/
2026-07-21T1300,1755A,123.7974,41.8494,抚顺市,望花区,,47,47,43,21,28,150,150,89,89,9,20,12,11,0.9,0.8
2026-07-21T1300,1756A,123.9161,41.8827,抚顺市,顺城区,,47,37,37,19,21,148,148,90,90,9,19,10,9,1.0,0.9
2026-07-21T1300,1757A,124.0437,41.8615,抚顺市,东洲区,NA,NA,NA,30,22,17,158,158,98,98,NA,11,9,8,0.6,0.5
2026-07-21T1300,1758A,123.9246,41.8638,抚顺市,新抚区,,47,40,38,17,23,150,150,90,90,6,19,9,9,1.1,1
2026-07-21T1300,1759A,124.0972,41.8961,抚顺市,大伙房水库,,50,32,25,17,15,159,159,89,89,10,11,11,11,0.7,0.7
2026-07-21T1300,1760A,123.708,41.8386,抚顺市,沈抚新城,臭氧1小时(O3_1h),64,52,45,24,27,171,171,106,106,10,20,12,9,1.3,1.1
2026-07-21T1300,2377A,116.3544,27.9833,抚州市,市站,,28,28,21,15,8,59,59,40,40,2,2,2,2,0.8,0.8
2026-07-21T1300,2378A,116.3562,27.9631,抚州市,血防站,,32,32,24,10,6,55,55,34,34,2,5,6,6,0.5,0.6
2026-07-21T1300,2379A,116.3561,28.0007,抚州市,采茶剧团,,33,33,23,10,5,61,61,38,38,2,6,12,12,0.6,0.6
2026-07-21T1300,2380A,116.3854,27.9648,抚州市,医学分院,,23,23,18,3,4,58,58,40,40,3,5,3,4,0.7,0.6
2026-07-21T1300,2207A,121.6095,41.9978,阜新市,工业园区,,45,39,37,10,23,144,144,116,116,9,15,6,10,0.6,0.6
2026-07-21T1300,2208A,121.6567,42.0188,阜新市,长青街,,45,32,29,11,21,144,144,119,119,6,11,9,12,0.5,0.5
2026-07-21T1300,2209A,121.6672,42.07,阜新市,农业园区,,47,47,44,11,23,144,144,119,119,9,10,4,5,0.7,0.7
2026-07-21T1300,2211A,121.6343,42.0455,阜新市,玉龙新城,,48,48,36,7,26,136,136,105,105,7,12,5,4,0.6,0.6
2026-07-21T1300,2301A,115.8276,32.8929,阜阳市,市监测站,,39,19,34,3,11,123,123,86,86,6,13,6,6,0.4,0.5
2026-07-21T1300,2303A,115.8551,32.8606,阜阳市,开发区,,38,14,31,3,13,119,119,83,83,6,13,4,4,0.2,0.3
2026-07-21T1300,2875A,115.783962,32.889217,阜阳市,阜阳职业技术学院,,40,14,29,3,13,128,128,94,94,2,6,3,4,0.4,0.4
2026-07-21T1300,3468A,115.79,32.8614,阜阳市,市规划展馆,,38,15,29,3,14,120,120,83,83,5,13,2,1,0.4,0.5
2026-07-21T1300,3469A,115.835101,32.918568,阜阳市,枣园社区,,38,19,30,3,12,119,119,82,82,4,12,4,4,0.3,0.4
2026-07-21T1300,2669A,102.9097,34.9841,甘南藏族自治州,州政府,,40,11,25,3,10,127,127,64,64,2,11,5,5,0.2,0.3
2026-07-21T1300,3380A,102.8915,34.9618,甘南藏族自治州,甘肃民族师范学院,,43,8,33,3,12,136,136,65,65,8,20,4,5,0.2,0.3
2026-07-21T1300,2570A,101.96,30.048,甘孜藏族自治州,水桥子,,33,11,20,6,7,104,104,45,45,2,16,3,3,0.0,0.2
2026-07-21T1300,3065A,101.9534,29.9976,甘孜藏族自治州,州环保局,,30,21,23,3,7,96,96,48,48,10,18,3,3,0.8,0.8
2026-07-21T1300,2363A,114.9368,25.8663,赣州市,地委,,37,37,28,16,11,74,74,63,63,12,4,3,2,0.3,0.5
2026-07-21T1300,2364A,114.946,25.8483,赣州市,气象台,,32,32,25,18,10,74,74,60,60,4,4,3,4,0.3,0.5
2026-07-21T1300,2365A,114.932,25.8332,赣州市,市图书馆,,35,35,23,15,8,79,79,64,64,4,4,3,4,0.8,1
2026-07-21T1300,2366A,114.8905,25.8472,赣州市,华坚鞋城,,45,45,28,15,11,81,81,54,54,6,6,2,3,0.3,0.4
2026-07-21T1300,3109A,115.0094,25.8614,赣州市,赣县区卫计委,,40,40,25,19,12,72,72,55,55,5,9,2,2,0.6,0.6
2026-07-21T1300,2684A,106.2753,36.0057,固原市,监测站,NA,NA,10,47,3,13,138,138,112,112,3,11,7,7,NA,0.4
2026-07-21T1300,2685A,106.2384,36.0189,固原市,新区,,43,17,41,3,13,136,136,102,102,3,8,6,7,0.3,0.3
2026-07-21T1300,2544A,106.6307,30.4577,广安市,市委,NA,NA,62,52,21,29,194,194,116,116,NA,14,15,10,NA,0.6
2026-07-21T1300,2545A,106.6266,30.4662,广安市,友谊中学,臭氧1小时(O3_1h),92,47,45,14,26,193,193,117,117,8,13,13,11,0.7,0.6
2026-07-21T1300,2547A,106.6386,30.4551,广安市,广电花园,臭氧1小时(O3_1h),97,56,48,27,29,197,197,121,121,9,15,11,10,0.7,0.7
2026-07-21T1300,2902A,106.6347,30.4868,广安市,北辰小学,臭氧1小时(O3_1h),83,53,52,26,31,186,186,125,125,8,12,10,9,0.5,0.5
2026-07-21T1300,2524A,105.8211,32.4444,广元市,老城,臭氧1小时(O3_1h),87,28,42,22,23,189,189,94,94,9,24,12,13,0.5,0.5
2026-07-21T1300,2526A,105.8629,32.429,广元市,监测站,臭氧1小时(O3_1h),67,42,46,19,21,173,173,101,101,10,13,5,6,0.5,0.4
2026-07-21T1300,3617A,105.8047,32.4167,广元市,经开区,臭氧1小时(O3_1h),88,53,51,27,29,190,190,96,96,14,29,12,14,0.6,0.6
2026-07-21T1300,1345A,113.2346,23.1423,广州市,广雅中学,,30,30,36,20,19,38,38,34,34,23,18,5,5,0.5,0.5
2026-07-21T1300,1346A,113.2611,23.105,广州市,市五中,,26,26,37,18,20,53,53,42,42,22,20,4,4,/,/
2026-07-21T1300,1348A,113.3477,23.0916,广州市,广东商学院,,17,17,36,10,19,41,41,33,33,11,16,4,4,0.4,0.5
2026-07-21T1300,1349A,113.4332,23.105,广州市,市八十六中,,14,14,31,9,17,36,36,36,36,21,28,6,6,/,/
2026-07-21T1300,1350A,113.3506,22.9488,广州市,番禺中学,,19,19,43,9,20,46,46,44,44,19,14,6,6,0.4,0.4
2026-07-21T1300,1133A,126.6894,45.7733,哈尔滨市,太平宏伟公园,,36,10,40,3,12,114,114,63,63,7,32,8,7,0.3,0.4
2026-07-21T1300,1134A,126.6361,45.7672,哈尔滨市,道外承德广场,,36,35,49,9,16,115,115,62,62,12,38,8,6,0.8,0.8
2026-07-21T1300,1136A,126.644,45.7261,哈尔滨市,动力和平路,NA,NA,NA,44,14,15,118,118,64,64,10,34,7,3,0.2,0.4
2026-07-21T1300,1137A,126.5933,45.7479,哈尔滨市,道里建国路,NA,NA,60,50,20,27,107,107,67,67,NA,34,23,6,0.7,1.1
2026-07-21T1300,1138A,126.6127,45.6119,哈尔滨市,平房东轻厂,,36,16,23,12,11,114,114,69,69,5,18,8,7,0.5,0.6
2026-07-21T1300,1139A,126.5875,45.9827,哈尔滨市,呼兰师专,,45,45,34,10,10,116,116,55,55,11,32,13,10,0.3,0.5
2026-07-21T1300,1140A,126.6299,45.6799,哈尔滨市,省农科院,颗粒物(PM10),74,83,79,25,18,103,103,56,56,13,40,6,5,0.5,0.6
2026-07-21T1300,4282A,126.6769,45.7379,哈尔滨市,华山路1号,,39,14,33,10,12,124,124,69,69,4,25,10,9,0.2,0.3
2026-07-21T1300,4283A,126.9717,45.5356,哈尔滨市,解放大街52号,,32,20,40,3,5,102,102,67,67,3,21,4,6,0.6,0.6
2026-07-21T1300,2688A,93.5124,42.8176,哈密市,地区监测站,,42,38,27,17,12,133,133,78,77,10,13,13,4,0.5,0.2
2026-07-21T1300,2689A,93.5014,42.8312,哈密市,哈密师范学校,细颗粒物(PM2.5),129,NA,39,91,30,128,128,66,66,13,18,2,3,0.6,0.3
2026-07-21T1300,2671A,100.9016,36.9464,海北藏族自治州,海晏县西海镇,,45,18,19,11,9,144,144,95,95,2,2,8,7,0.4,0.3
2026-07-21T1300,3867A,102.074,36.5056,海东市,平安区公安局北苑,,45,21,31,9,12,143,143,94,94,4,7,10,10,0.5,0.5
2026-07-21T1300,4163A,102.0984,36.5119,海东市,滨河路,,42,NA,16,3,10,132,132,81,81,9,18,8,8,0.5,0.5
2026-07-21T1300,1410A,110.3189,20.0596,海口市,海南大学,,32,29,41,22,21,76,76,57,57,4,8,5,5,0.3,0.4
2026-07-21T1300,1411A,110.2827,20.0051,海口市,秀英海南医院,,35,35,31,20,22,76,76,54,54,6,12,6,6,0.3,0.3
2026-07-21T1300,1412A,110.3391,19.9979,海口市,海南师范大学,,45,45,36,18,21,74,74,54,54,3,7,4,3,0.3,0.4
2026-07-21T1300,1413A,110.3303,20.0359,海口市,龙华路环保局宿舍,,45,45,38,20,21,76,76,56,56,4,8,/,/,0.3,0.3
2026-07-21T1300,3539A,110.5111,19.9737,海口市,桂林洋子站,,38,38,35,17,20,66,66,55,55,3,6,/,/,/,/
2026-07-21T1300,4134A,110.1952,20.0451,海口市,长滨二路9号,,48,48,42,23,22,70,70,52,52,3,8,/,/,/,/
2026-07-21T1300,2673A,100.6158,36.2985,海南藏族自治州,共和县恰卜恰镇,,46,20,23,11,12,146,146,107,107,2,7,3,5,0.4,0.4
2026-07-21T1300,2676A,97.373,37.376,海西蒙古族藏族自治州,德令哈市,,44,24,22,15,9,138,138,115,115,1,2,11,10,0.3,0.3
2026-07-21T1300,1049A,114.492,36.5712,邯郸市,矿院,臭氧1小时(O3_1h),55,NA,25,30,22,164,164,124,124,5,4,2,1,0.5,0.5
2026-07-21T1300,1050A,114.4839,36.6136,邯郸市,丛台公园,臭氧1小时(O3_1h),52,27,26,26,19,161,161,123,123,2,4,5,5,0.5,0.5
2026-07-21T1300,3458A,114.7893,36.5592,邯郸市,香泉濮院小区,,48,NA,20,31,23,151,151,123,123,3,6,3,3,0.4,0.3
2026-07-21T1300,3580A,114.1998,36.4439,邯郸市,峰峰矿区临水派出所,细颗粒物(PM2.5),62,48,34,41,27,165,165,130,130,8,7,3,3,1.0,0.5
2026-07-21T1300,4068A,114.5209,36.7697,邯郸市,建安街268号,臭氧1小时(O3_1h),52,35,26,23,16,161,161,111,111,8,7,3,3,0.3,0.3
2026-07-21T1300,4069A,114.5488,36.6177,邯郸市,丛台东路558号,,50,50,33,19,18,159,159,121,121,4,6,1,2,0.5,0.4
2026-07-21T1300,2635A,107.0155,33.0707,汉中市,市监测站,,48,48,40,16,19,123,123,87,87,6,10,4,5,0.3,0.3
2026-07-21T1300,2636A,107.0083,33.114,汉中市,鑫源开发区,,39,35,35,11,17,124,124,82,82,6,12,6,7,0.5,0.6
2026-07-21T1300,2637A,107.0072,33.0323,汉中市,南郑大河坎水厂,,36,32,42,13,23,115,115,74,74,5,13,3,3,0.3,0.4
2026-07-21T1300,1223A,120.2073,30.2111,杭州市,滨江,,30,14,16,8,8,95,95,63,63,8,12,4,4,0.3,0.3
2026-07-21T1300,1224A,120.0625,30.2737,杭州市,西溪,,21,6,11,3,9,66,66,47,47,1,6,4,4,0.6,0.6
2026-07-21T1300,1226A,120.3417,30.315,杭州市,下沙,,30,12,16,6,11,94,94,63,63,4,16,4,4,0.7,0.8
2026-07-21T1300,1227A,120.1252,30.2465,杭州市,卧龙桥,,26,13,15,6,8,82,82,56,56,5,8,6,6,0.6,0.6
2026-07-21T1300,1228A,120.1902,30.2691,杭州市,浙江农大,,25,13,15,9,9,77,77,55,55,13,18,7,7,0.4,0.4
2026-07-21T1300,1230A,120.1195,30.3121,杭州市,和睦小学,,25,NA,6,8,9,79,79,56,56,3,7,8,11,0.6,0.6
2026-07-21T1300,1231A,120.3076,30.4146,杭州市,临平镇,NA,NA,14,21,3,7,99,99,56,56,2,10,6,6,NA,0.6
2026-07-21T1300,1232A,120.2753,30.1839,杭州市,城厢镇,,27,18,19,10,10,84,84,58,58,4,10,5,5,0.5,0.5
2026-07-21T1300,1233A,120.0883,30.1808,杭州市,云栖,,26,12,16,7,8,83,83,54,54,5,10,6,5,0.7,0.7
2026-07-21T1300,3557A,119.9463,30.0496,杭州市,镇二中,,21,12,15,6,8,67,67,49,49,10,13,5,5,0.4,0.5
2026-07-21T1300,3558A,119.7184,30.2367,杭州市,市府大楼,,19,8,13,3,9,59,59,42,42,2,4,8,8,0.4,0.5
2026-07-21T1300,3656A,120.1554,30.2863,杭州市,消防大队,,25,19,14,8,8,79,79,56,56,2,2,8,8,0.6,0.7
2026-07-21T1300,1270A,117.1957,31.7845,合肥市,明珠广场,,34,9,11,3,1,106,106,70,70,5,11,8,8,0.6,0.5
2026-07-21T1300,1271A,117.307,31.8765,合肥市,三里街,,30,7,9,3,2,93,93,57,57,7,12,9,9,0.4,0.5
2026-07-21T1300,1272A,117.2587,31.8703,合肥市,琥珀山庄,,33,9,25,3,2,105,105,73,73,5,11,8,8,0.5,0.5
2026-07-21T1300,1275A,117.2593,31.9376,合肥市,庐阳区,,34,12,10,3,1,108,108,74,74,12,15,11,9,0.4,0.4
2026-07-21T1300,1276A,117.345251,31.861615,合肥市,瑶海区,,30,9,9,3,2,94,94,64,64,4,12,3,3,0.5,0.5
2026-07-21T1300,1277A,117.3033,31.7967,合肥市,包河区,,31,14,15,3,1,98,98,56,56,6,26,8,8,0.3,0.3
2026-07-21T1300,1278A,117.278,31.7392,合肥市,滨湖新区,,34,12,6,10,1,108,108,74,74,5,6,6,6,0.7,0.6
2026-07-21T1300,1279A,117.1324,31.8395,合肥市,高新区,,33,12,13,3,1,104,104,73,73,2,8,7,7,0.5,0.5
2026-07-21T1300,3464A,117.3802,31.9148,合肥市,高教基地,,35,14,7,3,2,111,111,73,73,7,5,8,6,0.5,0.4
2026-07-21T1300,4098A,117.2518,31.8404,合肥市,中国科学技术大学,,38,9,9,3,2,119,119,82,82,3,9,10,9,0.6,0.6
2026-07-21T1300,3614A,79.9241,37.0878,和田地区,地区环保局,颗粒物(PM10),104,129,139,32,37,130,130,94,94,4,9,2,2,0.2,0.3
2026-07-21T1300,3615A,79.9132,37.1137,和田地区,市环保局,颗粒物(PM10),109,141,131,28,40,134,134,90,90,2,10,3,2,0.2,0.4
2026-07-21T1300,2517A,108.0496,24.6957,河池市,市环保站,,31,31,20,6,5,72,72,31,31,5,7,4,4,0.8,0.7
2026-07-21T1300,4302A,108.0901,24.6945,河池市,上任中路54号,NA,NA,27,29,3,5,62,62,26,26,NA,9,5,6,0.9,0.9
2026-07-21T1300,1697A,114.6962,23.7538,河源市,东埔,,43,42,26,30,18,58,58,38,38,4,9,4,6,0.3,0.4
2026-07-21T1300,1698A,114.6895,23.7232,河源市,老城,,48,44,34,33,17,63,63,41,41,5,10,8,9,0.3,0.5
2026-07-21T1300,3374A,115.5562,35.089,菏泽市,定陶老年大学,臭氧1小时(O3_1h),58,41,34,28,28,166,166,97,97,8,11,2,2,0.6,0.6
2026-07-21T1300,4114A,115.4239,35.2593,菏泽市,黄河路600号,,48,38,36,19,28,153,153,95,95,8,10,4,5,0.4,0.4
2026-07-21T1300,4115A,115.5025,35.2727,菏泽市,菏泽市人社局,臭氧1小时(O3_1h),52,45,39,24,31,161,161,99,99,6,10,3,3,0.4,0.5
2026-07-21T1300,4184A,115.479691,35.244011,菏泽市,永昌路1号,臭氧1小时(O3_1h),60,42,39,17,23,168,168,104,104,5,9,6,6,0.5,0.5
2026-07-21T1300,4193A,115.471542,35.280012,菏泽市,长城路999号,,50,44,37,8,15,159,159,101,101,8,12,8,8,0.5,0.5
2026-07-21T1300,2514A,111.5264,24.4178,贺州市,环保小区,,27,27,21,16,13,66,66,48,48,10,8,10,10,0.4,0.3
2026-07-21T1300,2515A,111.561,24.4074,贺州市,政协大楼,,25,NA,14,17,12,72,72,59,59,7,10,11,12,0.6,0.5
2026-07-21T1300,3534A,111.4744,24.455,贺州市,西湾,,20,14,26,14,11,63,63,45,45,7,10,12,10,0.4,0.4
2026-07-21T1300,2385A,114.17,35.9019,鹤壁市,市监测站,细颗粒物(PM2.5),64,53,53,42,38,163,163,114,114,5,6,4,4,0.7,0.8
2026-07-21T1300,2386A,114.2953,35.7512,鹤壁市,市交警支队,,49,42,47,27,34,156,156,114,114,11,13,6,6,0.7,0.6
2026-07-21T1300,2387A,114.2877,35.7302,鹤壁市,迎宾馆,颗粒物(PM10),56,58,54,33,33,162,162,121,121,4,7,9,7,0.7,0.7
2026-07-21T1300,3474A,114.2616,35.6824,鹤壁市,大新区,臭氧1小时(O3_1h),58,43,48,30,33,166,166,122,122,3,9,2,4,0.7,0.8
2026-07-21T1300,3596A,114.1573,35.9607,鹤壁市,南山宾馆,细颗粒物(PM2.5),66,NA,39,43,46,166,166,117,117,7,7,11,10,0.7,0.7
2026-07-21T1300,2244A,130.2537,47.3416,鹤岗市,哈啤分公司,,30,19,17,3,6,95,95,68,68,6,7,4,4,0.2,0.1
2026-07-21T1300,2245A,130.2683,47.3087,鹤岗市,斯达机电,,27,17,21,6,13,84,84,59,59,3,10,7,6,0.3,0.3
2026-07-21T1300,2246A,130.3114,47.3388,鹤岗市,东山纸板厂,,32,16,38,3,13,102,102,66,66,9,14,5,6,0.2,0.4
2026-07-21T1300,2263A,127.4832,50.2524,黑河市,交通局,,20,11,18,8,8,64,64,45,45,2,7,6,6,0.1,0.2
2026-07-21T1300,2264A,127.5146,50.2339,黑河市,环保局,,18,13,18,3,9,57,57,41,41,6,10,8,8,0.2,0.3
2026-07-21T1300,1074A,115.6839,37.754,衡水市,电机北厂,,46,42,43,16,19,146,146,104,104,4,6,4,2,0.4,0.4
2026-07-21T1300,1075A,115.6303,37.7318,衡水市,市监测站,,47,35,42,10,16,148,148,110,110,2,5,5,5,0.7,0.7
2026-07-21T1300,3188A,115.6684,37.7216,衡水市,市城管局,,44,30,36,15,19,140,140,100,100,3,5,5,4,0.4,0.3
2026-07-21T1300,3459A,115.599,37.5491,衡水市,地表水厂,,49,49,33,19,18,139,139,107,107,5,6,5,5,0.3,0.3
2026-07-21T1300,2457A,112.6209,26.9268,衡阳市,衡阳化工总厂,,32,32,17,11,10,76,76,44,44,3,6,4,4,0.5,0.6
2026-07-21T1300,2458A,112.621,26.8957,衡阳市,珠晖区环保局,,34,34,17,12,8,82,82,47,47,5,7,6,6,0.7,0.8
2026-07-21T1300,2459A,112.628,26.8654,衡阳市,市委党校,,40,40,18,14,10,79,79,42,42,2,4,2,3,0.5,0.5
2026-07-21T1300,2460A,112.6007,26.8977,衡阳市,市监测站,,28,24,16,15,9,88,88,49,49,4,7,1,2,0.7,0.8
2026-07-21T1300,2461A,112.5658,26.9013,衡阳市,真空机电公司,,25,19,15,17,11,70,70,45,45,4,9,5,5,0.9,1.2
2026-07-21T1300,3399A,112.6703,26.8817,衡阳市,师范学院,,33,33,16,17,8,78,78,44,44,1,3,8,9,0.6,0.6
2026-07-21T1300,3038A,103.3757,23.3679,红河哈尼族彝族自治州,州图书馆,,39,NA,34,27,21,116,116,68,68,2,4,5,4,0.3,0.3
2026-07-21T1300,4154A,103.401,23.3561,红河哈尼族彝族自治州,蒙自市朝阳路,,40,NA,21,18,19,127,127,75,75,3,4,5,5,0.3,0.3
2026-07-21T1300,1090A,111.6506,40.7517,呼和浩特市,呼市一监,颗粒物(PM10),51,51,31,3,15,144,144,98,98,13,15,11,8,0.5,0.5
2026-07-21T1300,1094A,111.7516,40.8369,呼和浩特市,如意水处理厂,臭氧1小时(O3_1h),78,50,32,29,16,182,182,107,107,14,19,10,6,0.6,0.4
2026-07-21T1300,1095A,111.727798,40.806187,呼和浩特市,二十九中,臭氧1小时(O3_1h),58,53,32,30,18,166,166,104,104,11,15,13,11,0.6,0.8
2026-07-21T1300,1097A,111.717,40.7617,呼和浩特市,化肥厂生活区,,50,49,31,35,24,153,153,45,NA,16,17,16,13,0.9,0.9
2026-07-21T1300,3699A,111.6519,40.8389,呼和浩特市,海东办,臭氧1小时(O3_1h),70,56,31,3,11,176,176,98,98,16,23,6,7,0.5,0.2
2026-07-21T1300,4275A,111.591512,40.827312,呼和浩特市,成吉思汗西街8号,颗粒物(PM10),53,53,35,13,13,156,156,86,86,22,32,8,6,0.6,0.4
2026-07-21T1300,4276A,111.6597,40.8077,呼和浩特市,公园东路75号,臭氧1小时(O3_1h),78,58,32,16,13,182,182,121,121,14,16,16,13,0.7,0.5
2026-07-21T1300,4277A,111.5427,40.7846,呼和浩特市,金海路35号,颗粒物(PM10),53,53,39,20,15,138,138,84,84,18,24,6,5,0.7,0.6
2026-07-21T1300,3061A,119.7511,49.1576,呼伦贝尔市,国华电力东,,28,27,29,12,16,89,89,78,76,8,8,5,5,0.4,0.3
2026-07-21T1300,4279A,119.7569,49.2222,呼伦贝尔市,伊敏大街东7号,,25,22,20,3,17,77,77,76,70,13,12,6,6,0.7,0.6
2026-07-21T1300,1250A,120.075,30.867,湖州市,城西水厂,,32,17,14,13,9,100,100,77,77,13,17,5,5,0.5,0.5
2026-07-21T1300,2873A,120.083,30.8929,湖州市,仁皇山新区,,34,14,14,13,10,108,108,68,68,5,17,5,5,0.5,0.6
2026-07-21T1300,2907A,120.1846,30.8592,湖州市,吴兴区站,,36,14,12,12,8,115,115,80,80,6,9,5,5,0.6,0.6
2026-07-21T1300,3562A,120.4146,30.8538,湖州市,南浔区站,,37,19,15,15,11,116,116,75,75,4,6,5,4,0.6,0.6
2026-07-21T1300,1607A,120.904878,40.721091,葫芦岛市,龙港区,,38,28,27,20,20,121,121,124,110,4,5,4,4,0.3,0.4
2026-07-21T1300,1608A,120.8382,40.7521,葫芦岛市,化工街,,39,17,29,11,21,122,122,103,98,7,11,7,7,0.2,0.3
2026-07-21T1300,1609A,120.8339,40.7078,葫芦岛市,新区,,39,37,30,14,21,122,122,105,100,4,6,4,4,0.6,0.7
2026-07-21T1300,1610A,120.8697,40.7679,葫芦岛市,东城区,NA,NA,58,33,23,27,124,124,111,106,NA,5,2,3,0.3,0.4
2026-07-21T1300,2483A,109.9297,27.5383,怀化市,河西地税局,,25,25,30,13,14,77,77,33,33,4,7,5,7,/,/
2026-07-21T1300,2484A,109.9783,27.5342,怀化市,市四医院,,25,23,23,11,15,78,78,28,28,12,14,4,5,0.5,0.4
2026-07-21T1300,2485A,109.9971,27.5579,怀化市,监测楼,,41,41,31,18,18,95,95,51,51,7,11,6,6,0.3,0.4
2026-07-21T1300,1210A,119.0566,33.5991,淮安市,钵池山,,39,31,15,13,8,123,123,81,81,8,8,2,2,0.9,0.8
2026-07-21T1300,1211A,119.0083,33.578,淮安市,北京南路,,42,24,12,12,7,133,133,89,89,5,4,5,4,0.8,0.8
2026-07-21T1300,1212A,118.9938,33.6083,淮安市,市监测站,,39,12,5,12,7,122,122,80,80,8,12,6,6,0.8,0.8
2026-07-21T1300,1213A,119.135,33.5038,淮安市,楚州区监测站,,31,10,7,9,8,99,99,78,78,2,3,4,4,0.8,0.8
2026-07-21T1300,3426A,118.8757,33.2897,淮安市,新华书店,NA,NA,32,18,NA,16,117,117,83,83,4,9,8,8,NA,0.9
2026-07-21T1300,4092A,119.119691,33.550006,淮安市,枚皋中路89号,,38,31,15,9,6,119,119,87,87,7,9,8,8,0.1,0.2
2026-07-21T1300,4206A,119.028838,33.631911,淮安市,承德北路606号,,39,19,11,18,9,122,122,82,82,3,7,6,6,0.6,0.6
2026-07-21T1300,2282A,116.8005,33.9749,淮北市,监测站,,47,26,20,14,11,149,149,106,106,4,9,6,7,0.6,0.6
2026-07-21T1300,2283A,116.8094,33.9008,淮北市,烈山区政府,,48,31,23,12,11,153,153,104,104,4,10,5,5,0.5,0.5
2026-07-21T1300,4017A,116.7926,33.9534,淮北市,市博物馆,NA,NA,36,22,24,12,NA,NA,80,80,4,7,4,4,0.3,0.4
2026-07-21T1300,4100A,116.8322,33.9884,淮北市,杜集区第一实验学校,,45,36,32,6,8,143,143,98,98,4,8,4,4,0.5,0.6
2026-07-21T1300,2277A,116.8304,32.7726,淮南市,潘集区政府,,40,13,14,13,4,126,126,69,69,10,12,7,6,0.5,0.3
2026-07-21T1300,2279A,116.8569,32.5949,淮南市,谢家集区政府,,32,NA,8,3,2,102,102,77,77,5,8,7,8,0.1,0.1
2026-07-21T1300,2280A,116.8279,32.6333,淮南市,八公山区政府,,34,16,13,3,2,106,106,69,69,5,7,7,6,0.2,0.2
2026-07-21T1300,2894A,117.0561,32.6536,淮南市,经济技术开发区消防队,,36,13,8,11,2,114,114,79,79,6,7,9,8,0.6,0.5
2026-07-21T1300,3329A,117.011,32.5891,淮南市,山南新区,,32,6,5,3,2,102,102,76,76,6,7,12,12,0.2,0.1
2026-07-21T1300,4209A,117.003137,32.644456,淮南市,国庆中路369号,,34,18,15,7,3,107,107,74,74,8,10,11,11,0.3,0.3
2026-07-21T1300,2446A,114.9021,30.474,黄冈市,职工中心,,25,15,18,9,14,78,78,66,66,6,8,10,10,0.7,0.8
2026-07-21T1300,2929A,114.8858,30.4519,黄冈市,红卫路,,30,NA,18,21,15,76,76,59,59,2,6,6,6,0.4,0.5
2026-07-21T1300,3398A,114.9134,30.4446,黄冈市,市林业局,NA,NA,14,21,NA,12,81,81,66,66,9,10,4,4,0.3,0.5
2026-07-21T1300,2672A,102.02,35.5101,黄南藏族自治州,同仁县隆务镇,,47,NA,18,9,12,150,150,111,111,1,2,8,8,0.2,0.2
2026-07-21T1300,2295A,118.2905,29.6965,黄山市,延安路89号,,17,10,14,3,6,54,54,37,37,2,4,2,2,0.4,0.4
2026-07-21T1300,2297A,118.1369,30.2755,黄山市,黄山区政府5号楼,,17,NA,13,6,3,53,53,29,29,2,3,3,2,0.6,0.6
2026-07-21T1300,4210A,118.335445,29.720283,黄山市,滨江东路7-2号,,22,22,24,3,5,53,53,35,35,1,4,/,/,/,/
2026-07-21T1300,2423A,115.0547,30.2332,黄石市,沈家营,,31,31,43,3,13,63,63,NA,NA,8,9,10,8,1.1,0.7
2026-07-21T1300,2426A,114.899,30.211,黄石市,铁山,,28,28,30,14,16,75,75,57,57,6,11,3,4,0.6,0.6
2026-07-21T1300,2427A,115.0259,30.2108,黄石市,团城山,,34,34,36,7,16,62,62,58,52,5,5,4,4,0.8,0.9
2026-07-21T1300,3149A,115.0174,30.1591,黄石市,笔架山北路,,25,24,48,6,12,78,78,49,49,2,4,4,5,0.5,0.6
2026-07-21T1300,4185A,115.078022,30.21118,黄石市,磁湖东路29号,,28,28,40,7,16,47,47,47,42,16,8,4,4,1.1,1
2026-07-21T1300,1392A,114.4181,23.0528,惠州市,河南岸金山湖子站,,43,43,32,22,17,74,74,50,50,4,10,7,8,0.5,0.5
2026-07-21T1300,1393A,114.4055,23.0824,惠州市,下埔横江三路子站,,49,49,42,18,18,77,77,54,54,5,11,6,6,0.4,0.5
2026-07-21T1300,1395A,114.4645,22.7832,惠州市,惠阳区承修路船湖子站,,43,43,37,20,17,75,75,58,58,3,8,4,4,0.7,0.7
2026-07-21T1300,1396A,114.5316,22.7423,惠州市,大亚湾管委会子站,,45,45,32,27,16,82,82,60,60,4,10,8,8,0.5,0.5
2026-07-21T1300,3314A,114.4334,22.8134,惠州市,惠阳秋长,,39,39,34,18,16,72,72,58,58,3,10,/,/,/,/
2026-07-21T1300,3452A,114.6521,22.7755,惠州市,大亚湾霞涌,,48,48,32,21,15,73,73,61,61,3,4,/,/,/,/
2026-07-21T1300,4300A,114.4089,23.1147,惠州市,文华一路1号,,44,44,34,19,17,82,82,56,56,2,8,/,/,/,/
2026-07-21T1300,2240A,130.9618,45.2926,鸡西市,环保局,,35,35,32,14,14,88,88,63,63,10,18,13,12,0.4,0.4
2026-07-21T1300,2243A,130.9294,45.2959,鸡西市,第一中学,,34,12,26,7,17,108,108,83,83,5,18,6,5,0.3,0.4
2026-07-21T1300,3707A,131.0069,45.2988,鸡西市,欧美日汽修厂,,25,12,26,8,14,77,77,65,65,5,18,8,9,0.6,0.6
2026-07-21T1300,2367A,114.9753,27.0803,吉安市,红声器材厂,,41,41,27,15,11,76,76,52,52,4,6,7,7,0.3,0.2
2026-07-21T1300,2369A,114.9903,27.1313,吉安市,市环境监测站,,45,45,27,17,8,75,75,51,51,3,5,9,10,/,/
2026-07-21T1300,2370A,115.009527,27.096792,吉安市,青原区法院,,39,39,28,12,9,76,76,54,54,3,8,7,7,0.2,0.2
2026-07-21T1300,1772A,126.54,43.8622,吉林市,哈达湾,,35,14,22,12,15,111,111,80,80,6,13,6,6,0.5,0.5
2026-07-21T1300,1773A,126.5843,43.8358,吉林市,东局子,,36,16,18,11,14,114,114,74,74,8,14,4,4,0.2,0.3
2026-07-21T1300,1774A,126.5051,43.8243,吉林市,电力学院,,37,15,24,11,15,118,118,83,83,2,10,5,5,0.3,0.4
2026-07-21T1300,1775A,126.6133,43.8971,吉林市,江北,,45,25,39,17,16,141,141,84,84,10,11,7,6,0.6,0.6
2026-07-21T1300,1776A,126.5549,43.8304,吉林市,江南公园,,39,16,22,10,15,122,122,82,82,2,9,3,4,0.2,0.2
2026-07-21T1300,2868A,126.4737,43.953,吉林市,九站,,38,21,27,9,16,120,120,84,84,4,16,2,6,0.5,0.5
2026-07-21T1300,1299A,116.9866,36.6118,济南市,科干所,,41,27,35,6,25,131,131,105,105,6,12,3,4,0.7,0.8
2026-07-21T1300,1300A,116.9379,36.6652,济南市,农科所,,41,24,37,7,28,130,130,95,95,3,10,4,4,0.3,0.4
2026-07-21T1300,1301A,117.1265,36.6736,济南市,开发区,,39,24,36,8,27,123,123,100,100,4,12,5,6,0.6,0.8
2026-07-21T1300,1303A,117.0616,36.6865,济南市,省种子仓库,,39,27,42,6,26,124,124,99,99,5,16,5,5,0.2,0.4
2026-07-21T1300,1304A,116.9495185,36.644937,济南市,机床二厂,,45,24,40,8,27,141,141,107,107,1,8,5,6,0.4,0.5
2026-07-21T1300,1305A,117.0496,36.6629,济南市,市监测站,,39,27,39,3,27,122,122,100,100,6,15,4,4,0.5,0.6
2026-07-21T1300,1306A,116.7674,36.5458,济南市,长清党校,,44,29,39,9,23,138,138,95,95,5,12,5,5,0.3,0.4
2026-07-21T1300,1961A,117.5323,36.6865,济南市,东山小学,,45,37,45,13,28,144,144,NA,NA,6,12,4,4,0.3,0.4
2026-07-21T1300,3059A,117.7181,36.205,济南市,泰兴公司,臭氧1小时(O3_1h),52,51,38,30,24,161,161,85,85,10,20,9,9,0.6,0.6
2026-07-21T1300,3064A,117.6861,36.2172,济南市,莱芜战役纪念馆,,50,41,36,23,24,159,159,90,90,7,15,5,5,0.4,0.5
2026-07-21T1300,3494A,117.1673,36.9782,济南市,济阳区政府,,48,42,52,11,29,152,152,106,106,9,16,5,3,0.3,0.5
2026-07-21T1300,3495A,117.1168,36.6299,济南市,锦屏中学,,36,27,37,7,24,113,113,92,92,3,6,2,2,0.3,0.4
2026-07-21T1300,4108A,117.7107,36.2385,济南市,山财大街5号,臭氧1小时(O3_1h),78,44,31,32,24,182,182,96,96,10,18,12,10,0.8,0.7
2026-07-21T1300,4109A,116.9744,36.6889,济南市,无影山路12号,,40,24,36,7,27,126,126,95,95,5,13,3,4,0.4,0.5
2026-07-21T1300,1653A,116.6229,35.4288,济宁市,火炬城,,45,26,35,10,16,142,142,92,92,6,11,4,5,0.6,0.6
2026-07-21T1300,3500A,116.5808,35.3703,济宁市,北湖一中,,47,42,34,23,17,148,148,96,96,6,10,4,4,0.5,0.5
2026-07-21T1300,3501A,116.8251,35.5592,济宁市,服务中心,NA,NA,NA,35,NA,20,156,156,100,100,3,11,2,3,0.4,0.4
2026-07-21T1300,3678A,116.5907,35.4054,济宁市,市第七中学,,48,43,32,19,17,152,152,96,96,6,13,6,6,0.5,0.5
2026-07-21T1300,4111A,116.6075,35.4566,济宁市,任和路,,49,26,32,20,18,156,156,100,100,4,9,4,4,0.5,0.5
2026-07-21T1300,4112A,116.5648,35.3921,济宁市,文体南路1号,,47,39,26,6,14,149,149,97,97,3,8,4,3,0.3,0.3
2026-07-21T1300,4122A,112.6071,35.1015,济源市,市委党校,臭氧1小时(O3_1h),52,48,86,29,35,161,161,113,113,7,11,5,3,0.6,0.8
2026-07-21T1300,4123A,112.596,35.0702,济源市,沁园中路1号,臭氧1小时(O3_1h),75,35,61,30,36,180,180,126,126,7,11,2,2,0.6,0.7
2026-07-21T1300,2255A,130.2749,46.8028,佳木斯市,佳纺,,30,25,32,3,11,95,95,56,56,6,24,5,4,0.2,0.2
2026-07-21T1300,2257A,130.3258,46.7975,佳木斯市,环保局,,31,20,28,7,10,98,98,61,61,11,24,6,5,0.4,0.4
2026-07-21T1300,4285A,130.363,46.806,佳木斯市,顺和街,,30,20,23,10,9,94,94,65,65,7,19,3,3,0.2,0.3
2026-07-21T1300,4286A,130.3952,46.8268,佳木斯市,长安路196号,NA,NA,NA,22,8,8,94,94,70,70,7,18,28,8,0,0.2
2026-07-21T1300,1252A,120.7439,30.778,嘉兴市,清河小学,,31,17,17,10,8,98,98,64,64,8,14,5,5,0.6,0.6
2026-07-21T1300,1253A,120.7261,30.7477,嘉兴市,嘉兴学院,,35,NA,12,14,10,111,111,68,68,7,10,2,3,1.0,0.9
2026-07-21T1300,2872A,120.7845,30.7524,嘉兴市,南湖区残联,,40,21,18,11,11,125,125,76,76,2,6,5,5,0.7,0.7
2026-07-21T1300,3407A,120.6915,30.7741,嘉兴市,秀洲住建,,33,17,15,9,7,104,104,64,64,4,6,4,4,0.4,0.4
2026-07-21T1300,1945A,98.291,39.7705,嘉峪关市,气象局,,44,14,23,7,11,140,140,120,120,2,10,6,14,0.6,0.6
2026-07-21T1300,2884A,98.2672,39.7978,嘉峪关市,酒钢宾馆,,41,19,26,3,10,129,129,111,111,3,10,1,12,0.4,0.5
2026-07-21T1300,3248A,98.2644,39.7723,嘉峪关市,雄关区,,43,24,30,9,10,137,137,113,113,3,11,4,9,0.1,0.2
2026-07-21T1300,1383A,113.1063,22.6058,江门市,北街,,17,17,35,7,16,39,39,41,40,11,6,/,/,/,/
2026-07-21T1300,1384A,113.073,22.5835,江门市,西区,,13,13,37,7,19,38,38,46,42,16,10,/,/,/,/
2026-07-21T1300,1385A,113.0218,22.531,江门市,圭峰西,,14,14,36,8,19,38,38,53,43,15,9,/,/,/,/
2026-07-21T1300,1386A,113.0826,22.5947,江门市,东湖,,13,12,37,6,19,40,40,46,42,14,9,6,6,0.4,0.4
2026-07-21T1300,3311A,113.1077,22.5647,江门市,江海富民,,21,21,55,7,20,41,41,43,42,15,10,/,/,0.5,0.5
2026-07-21T1300,3449A,113.0496,22.4669,江门市,新会银湖,,20,20,34,3,18,35,35,48,38,16,10,4,4,0.4,0.4
2026-07-21T1300,3335A,113.3137,35.2643,焦作市,马村街道办,细颗粒物(PM2.5),58,NA,53,39,37,158,158,101,101,11,11,6,5,0.5,0.4
2026-07-21T1300,3336A,113.2464,35.2374,焦作市,焦作技师学院,臭氧1小时(O3_1h),79,63,60,36,34,183,183,124,124,5,8,7,6,0.6,0.7
2026-07-21T1300,3477A,113.1656,35.2536,焦作市,中站许衡医院,臭氧1小时(O3_1h),78,40,53,33,34,182,182,127,127,8,10,8,8,0.5,0.5
2026-07-21T1300,3981A,113.2456,35.18,焦作市,原李万街道办,臭氧1小时(O3_1h),87,41,60,31,33,189,189,123,123,15,9,5,7,0.5,0.5
2026-07-21T1300,4264A,113.234,35.219,焦作市,新安路1731号,臭氧1小时(O3_1h),73,45,55,29,34,178,178,117,117,11,12,9,6,0.5,0.4
2026-07-21T1300,4295A,113.2722,35.2121,焦作市,人民路3066号,臭氧1小时(O3_1h),60,45,55,34,35,168,168,110,110,6,11,3,5,0.7,0.7
2026-07-21T1300,1708A,116.3701,23.5345,揭阳市,新兴,,48,48,42,16,24,71,71,43,43,12,26,8,13,0.6,0.6
2026-07-21T1300,1709A,116.3261,23.5442,揭阳市,西马,颗粒物(PM10),52,52,45,19,26,94,94,52,52,7,25,5,9,0.6,0.7
2026-07-21T1300,1710A,116.361,23.5627,揭阳市,东兴,NA,NA,NA,38,NA,25,83,83,4,NA,NA,30,5,17,/,/
2026-07-21T1300,1711A,116.4151,23.5295,揭阳市,渔湖,,43,43,42,13,26,68,68,45,45,5,25,3,10,/,/
2026-07-21T1300,3320A,116.4028,23.5699,揭阳市,曲溪,,35,35,34,13,22,79,79,46,46,5,22,10,22,0.5,0.6
2026-07-21T1300,1944A,102.1691,38.5166,金昌市,天庆家园,,41,19,61,3,18,130,130,98,98,3,10,6,8,0.1,0.1
2026-07-21T1300,4022A,102.1648,38.5369,金昌市,金川区人防中心,,44,17,53,7,16,140,140,110,110,4,10,7,10,0.2,0.3
2026-07-21T1300,4239A,102.193042,38.531887,金昌市,长春路96号,,41,16,54,3,18,131,131,106,106,2,8,6,21,0.2,0.4
2026-07-21T1300,1262A,119.6478,29.0773,金华市,十五中,,27,27,41,7,9,69,69,55,55,5,10,2,2,0.4,0.5
2026-07-21T1300,1263A,119.6859,29.1032,金华市,监测站,,24,16,19,6,7,76,76,49,49,4,6,2,2,0.4,0.4
2026-07-21T1300,3659A,119.656,29.1132,金华市,气象局,,25,19,19,9,8,78,78,56,56,4,9,3,2,0.4,0.5
2026-07-21T1300,1767A,121.1114,41.0879,锦州市,南山,,35,33,26,10,20,112,112,92,92,4,11,1,1,0.5,0.6
2026-07-21T1300,1768A,121.060361,40.842794,锦州市,开发区,,40,30,44,17,20,125,125,124,118,8,13,6,8,0.5,0.5
2026-07-21T1300,1769A,121.1836,41.1118,锦州市,百股街道,NA,NA,NA,30,NA,25,NA,NA,170,NA,NA,6,NA,4,NA,0.6
2026-07-21T1300,1770A,121.1176,41.1224,锦州市,天安街道,,42,32,36,11,28,132,132,106,106,9,14,4,6,0.4,0.5
2026-07-21T1300,1771A,121.1303,41.1385,锦州市,北湖公园,,47,47,39,13,26,135,135,110,110,6,9,4,6,0.5,0.6
2026-07-21T1300,2160A,112.8496,35.5051,晋城市,自来水公司,,46,29,51,14,26,147,147,114,114,5,9,4,3,0.5,0.6
2026-07-21T1300,2162A,112.8509,35.4886,晋城市,市环保局,,45,43,62,16,34,141,141,122,122,4,8,4,5,0.4,0.6
2026-07-21T1300,3620A,112.8258,35.4804,晋城市,泽州一中,,46,38,62,24,32,145,145,128,128,5,9,4,5,0.6,0.7
2026-07-21T1300,4078A,112.8246,35.5152,晋城市,前书院路,,47,37,55,15,27,150,150,114,114,2,5,4,5,0.6,0.7
2026-07-21T1300,4079A,112.8864,35.4773,晋城市,祥云街666号,,44,34,52,14,36,139,139,114,114,3,7,5,5,0.5,0.6
2026-07-21T1300,2174A,112.6992,37.6984,晋中市,榆次区政府,臭氧1小时(O3_1h),74,58,54,42,37,179,179,121,121,4,9,12,11,0.6,0.6
2026-07-21T1300,2865A,112.7195,37.683,晋中市,榆次三中,臭氧1小时(O3_1h),64,58,52,37,33,171,171,124,124,4,9,14,13,0.8,0.6
2026-07-21T1300,4080A,112.7375,37.7215,晋中市,广安街188号,臭氧1小时(O3_1h),72,62,59,35,33,177,177,120,120,5,11,14,12,0.4,0.5
2026-07-21T1300,4200A,112.7478,37.6954,晋中市,迎宾街26号,臭氧1小时(O3_1h),62,58,53,40,34,169,169,117,117,5,11,11,9,0.8,0.6
2026-07-21T1300,2439A,112.2012,31.048,荆门市,竹园小学,,46,36,48,32,29,147,147,107,107,6,8,3,4,0.8,0.9
2026-07-21T1300,2440A,112.1968,30.9892,荆门市,掇刀,,49,NA,44,34,29,145,145,107,107,6,8,8,6,0.6,0.7
2026-07-21T1300,3012A,112.1849,31.0361,荆门市,西山林语,,49,49,45,33,30,136,136,95,95,6,6,8,10,0.9,0.9
2026-07-21T1300,3547A,112.1631,31.0134,荆门市,龙泉中学南校,,46,28,40,20,27,145,145,103,103,6,7,6,7,0.8,0.9
2026-07-21T1300,4124A,112.2213,31.0654,荆门市,新台西路6号,,49,48,48,34,33,151,151,110,110,6,8,9,8,0.7,0.8
2026-07-21T1300,1844A,112.2493,30.3198,荆州市,市图书馆,,46,33,38,27,29,147,147,104,104,5,9,5,4,0.4,0.4
2026-07-21T1300,1845A,112.2009,30.3543,荆州市,市委党校,,45,38,42,30,29,142,142,97,97,4,8,5,5,0.5,0.5
2026-07-21T1300,3194A,112.2749,30.3124,荆州市,管委会,,49,37,33,34,31,141,141,102,102,5,8,6,4,0.4,0.5
2026-07-21T1300,4268A,112.1722,30.3366,荆州市,学苑路85号,,45,35,41,30,30,141,141,83,83,1,15,3,3,0.5,0.6
2026-07-21T1300,2343A,117.2114,29.2931,景德镇市,老干部活动中心,,17,15,14,6,10,53,53,37,37,5,8,3,4,0.7,0.8
2026-07-21T1300,2344A,117.1893,29.2789,景德镇市,兽医站,,21,21,24,9,8,51,51,31,31,6,8,4,4,0.7,0.7
2026-07-21T1300,2346A,117.246,29.2958,景德镇市,陶研所,,17,10,18,3,6,54,54,41,41,4,6,4,4,0.3,0.4
2026-07-21T1300,4289A,117.154766,29.256967,景德镇市,青少年活动中心,,15,12,16,3,7,46,46,34,34,3,10,7,16,/,/
2026-07-21T1300,1803A,115.9873,29.6816,九江市,十里,,15,9,13,6,6,45,45,42,42,15,11,4,4,0.6,0.5
2026-07-21T1300,1804A,115.9583,29.7047,九江市,茅山头,,13,9,14,3,7,41,41,38,37,9,12,4,4,0.4,0.5
2026-07-21T1300,1805A,115.9877,29.7295,九江市,西园,NA,NA,16,11,9,5,47,47,56,52,NA,11,3,3,NA,0.5
2026-07-21T1300,1808A,115.9112,29.6038,九江市,综合工业园,,17,6,13,3,8,53,53,30,30,5,19,2,2,0.3,0.4
2026-07-21T1300,3190A,116.0254,29.6995,九江市,外国语学校,,12,8,10,6,5,38,38,48,43,12,6,11,11,0.4,0.4
2026-07-21T1300,4253A,116.010205,29.659402,九江市,莲花大道8号,,14,6,7,3,5,43,43,42,42,3,4,4,4,0.4,0.5
2026-07-21T1300,4240A,98.495752,39.733935,酒泉市,玉门东路5号,,42,27,27,3,12,134,134,108,108,3,8,7,11,0.2,0.2
2026-07-21T1300,4241A,98.5099,39.7506,酒泉市,北大街108号,,46,46,36,7,13,133,133,118,118,2,7,11,17,0.2,0.3
2026-07-21T1300,2698A,76.0071,39.466,喀什地区,巡警大队,NA,NA,NA,146,NA,61,118,118,80,80,13,25,5,6,0.2,0.3
2026-07-21T1300,2699A,75.9756,39.4693,喀什地区,吾办,颗粒物(PM10),139,219,140,76,53,122,122,87,87,8,22,7,7,0.3,0.5
2026-07-21T1300,4027A,75.9485,39.4688,喀什地区,老干局,颗粒物(PM10),142,229,138,68,47,115,115,78,78,7,21,5,5,0.3,0.5
2026-07-21T1300,1824A,114.3389,34.778,开封市,肿瘤医院,,46,36,45,29,31,146,146,106,106,8,15,5,5,0.4,0.4
2026-07-21T1300,1826A,114.2884,34.7966,开封市,世纪星幼儿园,臭氧1小时(O3_1h),70,38,41,28,31,176,176,129,129,9,13,2,3,0.7,0.7
2026-07-21T1300,3147A,114.3434,34.8101,开封市,龙亭公园,,46,43,43,21,27,146,146,112,112,3,9,3,4,0.6,0.6
2026-07-21T1300,3210A,114.3645,34.7955,开封市,汴京公园,"颗粒物(PM10),臭氧1小时(O3_1h)",58,61,51,28,29,166,166,123,123,11,17,4,4,0.3,0.3
2026-07-21T1300,3473A,114.2485,34.8306,开封市,技师学院,颗粒物(PM10),55,57,44,23,23,158,158,132,132,2,7,5,5,0.9,0.7
2026-07-21T1300,3592A,114.4518,34.7503,开封市,祥符区生态环境局,,48,NA,31,33,34,149,149,106,106,4,13,10,10,0.7,0.7
2026-07-21T1300,1951A,84.886,45.6029,克拉玛依市,长征新村,NA,NA,50,52,18,19,131,131,89,89,NA,12,5,4,0.3,0.4
2026-07-21T1300,1952A,84.8894,45.5827,克拉玛依市,南林小区,颗粒物(PM10),55,56,56,3,13,125,125,72,72,13,13,7,6,0.1,0.2
2026-07-21T1300,1954A,84.896,44.3328,克拉玛依市,独山子区,,49,49,38,10,10,121,121,94,91,3,6,7,6,0.4,0.3
2026-07-21T1300,1955A,85.6888,46.0909,克拉玛依市,乌尔禾区商贸楼,,50,50,35,12,13,109,109,66,64,6,10,10,8,0.3,0.3
2026-07-21T1300,3612A,85.1045,45.6895,克拉玛依市,白碱滩区新站,NA,NA,52,49,12,13,110,110,72,72,8,7,NA,10,0.2,0.1
2026-07-21T1300,2697A,76.1457,39.7143,克孜勒苏柯尔克孜自治州,市人民政府,颗粒物(PM10),113,153,125,54,49,123,123,93,93,2,14,3,5,0.0,0
2026-07-21T1300,3665A,76.1654,39.7157,克孜勒苏柯尔克孜自治州,克州文化中心,颗粒物(PM10),111,147,137,53,50,127,127,104,104,6,11,6,7,0.2,0.2
2026-07-21T1300,1450A,102.8203,24.889,昆明市,呈贡新区,,45,38,34,19,19,144,144,85,85,6,18,4,6,0.9,0.9
2026-07-21T1300,1452A,102.7253,25.0904,昆明市,龙泉镇,,48,30,31,18,17,152,152,88,88,16,24,7,6,0.3,0.2
2026-07-21T1300,1453A,102.7267,25.0378,昆明市,东风东路,,50,35,36,24,20,157,157,83,83,13,24,5,5,0.6,0.5
2026-07-21T1300,1454A,102.6744,25.0671,昆明市,金鼎山,NA,NA,NA,41,NA,19,NA,NA,144,NA,NA,27,NA,4,NA,0.3
2026-07-21T1300,1455A,102.6643,25.0401,昆明市,碧鸡广场,,46,29,35,28,24,146,146,85,85,13,26,7,6,0.7,0.6
2026-07-21T1300,1269A,119.8794,28.4232,丽水市,余庄前,,23,14,12,6,5,72,72,42,42,3,8,5,6,0.5,0.5
2026-07-21T1300,1173A,119.1759,34.5885,连云港市,市环境监测站,,49,34,10,29,11,154,154,93,93,9,10,6,6,0.8,0.4
2026-07-21T1300,3000A,119.3577,34.6971,连云港市,德源药业,,46,46,22,24,10,131,131,73,73,20,21,7,5,1.1,0.7
2026-07-21T1300,3007A,119.178,34.8442,连云港市,新城一中,臭氧1小时(O3_1h),55,45,23,30,14,164,164,94,94,10,11,15,9,1.9,0.8
2026-07-21T1300,3008A,119.3607,34.7519,连云港市,胡沟管理处,,50,29,19,12,10,158,158,108,108,5,14,13,11,1.4,0.9
2026-07-21T1300,3009A,119.1478,34.5913,连云港市,矿山设计院,,45,34,13,24,9,143,143,83,83,10,13,1,1,0.8,0.5
2026-07-21T1300,3434A,119.2414,34.6539,连云港市,工贸学校,臭氧1小时(O3_1h),73,49,16,31,10,178,178,100,100,7,5,9,5,1.2,0.6
2026-07-21T1300,3664A,119.4171,34.734,连云港市,连云街道,NA,NA,NA,22,NA,11,128,128,83,83,17,14,14,5,0.8,0.7
2026-07-21T1300,2573A,102.2629,27.8981,凉山彝族自治州,西昌市政府,,46,33,25,17,14,146,146,95,95,10,7,10,8,0.4,0.3
2026-07-21T1300,2574A,102.2686,27.885,凉山彝族自治州,凉山州政府,,45,32,28,16,15,144,144,89,89,10,9,11,7,0.4,0.4
2026-07-21T1300,4229A,102.2342,27.8859,凉山彝族自治州,凯乐南路30号,,41,32,25,16,13,129,129,67,67,14,15,8,5,0.3,0.3
2026-07-21T1300,2212A,123.1978,41.2036,辽阳市,宏伟区,颗粒物(PM10),55,57,37,29,20,161,161,96,96,11,8,7,7,1.4,0.7
2026-07-21T1300,2213A,123.1684,41.2497,辽阳市,新华园,NA,NA,74,47,21,27,175,175,107,107,NA,15,22,14,1.2,0.8
2026-07-21T1300,2214A,123.2355,41.2663,辽阳市,滨河路,臭氧1小时(O3_1h),67,65,43,31,25,173,173,104,104,12,11,12,8,1.8,1
2026-07-21T1300,4083A,123.153,41.2874,辽阳市,铁西路150号,,44,28,48,16,28,138,138,100,100,7,12,16,9,1.0,1
2026-07-21T1300,2227A,125.1359,42.8845,辽源市,环保局,,41,25,31,9,13,130,130,23,NA,4,12,5,5,0.2,0.3
2026-07-21T1300,4085A,125.0998,42.9134,辽源市,安宁大街333号,,47,28,25,10,16,149,149,101,101,1,9,4,6,0.5,0.5
2026-07-21T1300,1625A,115.9789,36.4372,聊城市,区政府,NA,NA,33,37,17,22,NA,NA,93,NA,1,7,4,4,0.6,0.6
2026-07-21T1300,3200A,115.9772,36.4986,聊城市,监控中心,,49,30,34,15,28,155,155,93,93,2,10,8,8,0.4,0.4
2026-07-21T1300,3513A,116.0443,36.436,聊城市,九州社区,臭氧1小时(O3_1h),53,42,46,27,28,162,162,113,113,2,7,5,8,0.5,0.5
2026-07-21T1300,4018A,116.0564,36.4609,聊城市,星美广场,,50,50,49,27,32,158,158,102,102,1,7,1,5,0.4,0.3
2026-07-21T1300,4113A,116.0091,36.4495,聊城市,利民路,臭氧1小时(O3_1h),54,NA,34,21,24,163,163,114,114,4,9,9,10,0.3,0.4
2026-07-21T1300,2632A,94.3683,29.6373,林芝市,林芝监测站,,28,11,12,3,6,88,88,41,41,4,7,3,3,0.3,0.3
2026-07-21T1300,2633A,94.3616,29.6634,林芝市,林芝人民医院,,29,6,13,3,8,90,90,42,42,5,7,3,3,0.3,0.4
2026-07-21T1300,2603A,100.0779,23.8981,临沧市,市环保局,,20,16,17,6,8,61,61,33,33,7,9,5,6,0.5,0.5
2026-07-21T1300,2604A,100.0894,23.882,临沧市,市气象局,,22,15,22,9,10,69,69,38,38,4,6,8,7,0.5,0.6
2026-07-21T1300,1733A,111.5552,36.0791,临汾市,临钢医院,,48,46,58,18,22,151,151,99,99,11,18,7,8,0.6,0.9
2026-07-21T1300,1734A,111.4984,36.0734,临汾市,技工学校,颗粒物(PM10),55,57,69,30,30,142,142,97,97,6,15,7,7,0.6,0.8
2026-07-21T1300,1736A,111.5017,36.0857,临汾市,市委,颗粒物(PM10),65,71,80,18,22,139,139,96,96,6,15,6,8,0.5,0.7
2026-07-21T1300,3018A,111.5048,36.1015,临汾市,唐尧大酒店,颗粒物(PM10),60,64,80,13,21,139,139,97,97,9,18,5,6,0.6,0.8
2026-07-21T1300,4244A,111.4879,36.053,临汾市,启星学校,NA,NA,50,60,34,26,133,133,92,92,NA,17,7,7,0.9,1.1
2026-07-21T1300,4271A,103.2464,35.6123,临夏回族自治州,滨河东路1号,,43,34,43,3,12,135,135,84,84,1,13,8,7,0.4,0.4
2026-07-21T1300,4310A,103.207136,35.599807,临夏回族自治州,新华街21号,,44,33,40,3,13,139,139,86,86,7,9,10,9,0.2,0.2
2026-07-21T1300,1618A,118.3429,35.0532,临沂市,沂河小区,,49,39,18,16,6,156,156,101,101,6,9,10,11,0.3,0.2
2026-07-21T1300,1619A,118.2962,35.0568,临沂市,鲁南制药厂,臭氧1小时(O3_1h),55,39,15,10,6,164,164,100,100,9,10,11,11,0.7,0.6
2026-07-21T1300,1620A,118.2793,34.9976,临沂市,新光毛纺厂,臭氧1小时(O3_1h),63,34,10,17,7,170,170,100,100,5,8,7,7,0.4,0.3
2026-07-21T1300,1621A,118.3955,35.0889,临沂市,河东保险公司,,49,41,13,11,4,154,154,100,100,7,7,9,9,0.4,0.4
2026-07-21T1300,3370A,118.3563,35.0215,临沂市,十里堡居委,臭氧1小时(O3_1h),54,24,9,10,6,163,163,96,96,12,14,12,13,0.6,0.5
2026-07-21T1300,3496A,118.359,35.1067,临沂市,南坊新区,臭氧1小时(O3_1h),70,39,18,18,7,176,176,105,105,10,8,8,8,0.4,0.3
2026-07-21T1300,3860A,118.3915,35.0297,临沂市,皇山花园小区,臭氧1小时(O3_1h),62,36,14,14,7,169,169,100,100,9,10,10,9,0.6,0.5
2026-07-21T1300,1870A,109.4854,24.3898,柳州市,柳东小学,,23,12,12,9,8,73,73,46,46,7,10,4,4,0.8,0.7
2026-07-21T1300,1871A,109.4109,24.3304,柳州市,环保监测站,,23,23,20,12,14,56,56,40,40,8,18,7,8,0.9,1
2026-07-21T1300,1872A,109.3886,24.3408,柳州市,河西水厂,,27,27,26,12,18,59,59,38,38,9,24,8,10,0.8,0.9
2026-07-21T1300,1873A,109.4263,24.2951,柳州市,市四中,,37,37,17,9,8,61,61,41,41,7,11,5,5,0.9,0.9
2026-07-21T1300,1874A,109.396,24.3658,柳州市,市九中,,20,19,32,12,19,62,62,39,39,8,20,6,8,0.6,0.8
2026-07-21T1300,1875A,109.4912,24.3164,柳州市,古亭山,,21,20,13,8,7,67,67,36,36,4,15,4,3,0.7,0.7
2026-07-21T1300,3402A,109.5422,24.3994,柳州市,市二中,,23,17,14,9,8,73,73,48,48,6,13,6,6,0.4,0.6
2026-07-21T1300,2307A,116.5078,31.7369,六安市,监测大楼,,26,NA,7,14,10,81,81,60,60,4,6,4,4,0.5,0.5
2026-07-21T1300,2308A,116.4738,31.7642,六安市,皖西学院,,27,22,11,13,8,84,84,70,70,2,4,6,6,0.6,0.6
2026-07-21T1300,2309A,116.4997,31.7904,六安市,朝阳厂,,24,14,7,11,8,74,74,61,61,5,6,2,2,0.3,0.3
2026-07-21T1300,2310A,116.5566,31.7885,六安市,开发区,,23,16,6,15,9,72,72,54,54,3,4,5,5,0.3,0.4
2026-07-21T1300,2577A,104.8293,26.592,六盘水市,黄土坡,,49,22,24,10,13,154,154,97,97,7,10,5,4,0.4,0.5
2026-07-21T1300,2579A,104.8481,26.5898,六盘水市,民中,,46,28,26,8,15,146,146,93,93,9,17,5,3,0.4,0.5
2026-07-21T1300,2580A,104.9541,26.5506,六盘水市,双水,,45,19,36,7,14,141,141,68,68,5,23,5,7,0.2,0.4
2026-07-21T1300,4151A,104.8899,26.5685,六盘水市,钟山大道中段564号,,47,27,44,11,18,150,150,75,75,7,17,6,5,0.6,0.7
2026-07-21T1300,2336A,117.022,25.1031,龙岩市,龙岩市监测站,,39,39,23,19,12,67,67,38,38,1,7,4,7,0.1,0.2
2026-07-21T1300,2337A,117.0257,25.0662,龙岩市,闽西职业技术学院,,34,34,25,17,15,67,67,40,40,2,5,6,6,0.3,0.3
2026-07-21T1300,2338A,117.0195,25.0306,龙岩市,龙岩学院,,40,40,25,16,10,66,66,40,40,2,4,4,2,/,/
2026-07-21T1300,2885A,104.9344,33.3827,陇南市,滨江中学,,39,14,28,7,9,124,124,78,78,6,10,8,8,0.4,0.5
2026-07-21T1300,3247A,104.9551,33.3709,陇南市,市总工会,,37,33,29,8,9,117,117,76,76,5,7,6,7,0.4,0.4
2026-07-21T1300,2488A,111.9984,27.7346,娄底市,市监测站,,18,12,21,6,11,56,56,40,40,3,6,3,4,0.4,0.6
2026-07-21T1300,2491A,111.9888,27.7035,娄底市,市政府,,19,10,18,6,11,59,59,41,41,4,5,3,4,0.6,0.6
2026-07-21T1300,4127A,111.9812,27.7591,娄底市,涟钢职大,,22,7,23,3,11,68,68,44,44,3,8,1,1,0.3,0.9
2026-07-21T1300,4128A,112.0303,27.7457,娄底市,娄底体校,,20,NA,26,3,11,63,63,40,40,1,4,4,4,0.3,0.5
2026-07-21T1300,1894A,105.4427,28.9063,泸州市,小市上码头,臭氧1小时(O3_1h),105,37,41,18,22,210,210,111,111,13,20,9,8,0.6,0.5
2026-07-21T1300,1895A,105.4241,28.8573,泸州市,兰田宪桥,臭氧1小时(O3_1h),62,36,48,10,22,169,169,83,83,8,17,8,7,0.5,0.5
2026-07-21T1300,1896A,105.4378,28.8833,泸州市,市环监站,臭氧1小时(O3_1h),54,18,25,7,9,163,163,90,90,11,21,8,7,0.2,0.6
2026-07-21T1300,4325A,105.3665,28.77434,泸州市,纳溪区委政协,臭氧1小时(O3_1h),100,40,43,22,25,200,200,106,106,13,21,8,6,0.5,0.6
2026-07-21T1300,2183A,111.1447,37.5212,吕梁市,环保局,颗粒物(PM10),55,56,47,19,15,121,121,76,76,7,20,7,6,0.4,0.3
2026-07-21T1300,2185A,111.1285,37.5338,吕梁市,自来水公司,颗粒物(PM10),58,60,55,21,16,117,117,69,69,8,19,4,4,0.5,0.5
2026-07-21T1300,2867A,111.1225,37.5093,吕梁市,马茂庄小学,颗粒物(PM10),69,76,70,23,14,118,118,65,65,10,29,6,6,0.5,0.4
2026-07-21T1300,1812A,112.3934,34.6517,洛阳市,市委党校,臭氧1小时(O3_1h),73,51,53,36,35,178,178,122,122,8,10,8,8,0.6,0.6
2026-07-21T1300,1815A,112.494,34.6883,洛阳市,河南林校,臭氧1小时(O3_1h),85,54,64,31,39,188,188,122,122,9,15,12,13,0.5,0.5
2026-07-21T1300,1816A,112.3843,34.623,洛阳市,开发区管委会,臭氧1小时(O3_1h),97,45,47,36,36,197,197,136,136,11,13,13,14,0.7,0.7
2026-07-21T1300,1817A,112.4263,34.6249,洛阳市,市委新办公区,臭氧1小时(O3_1h),73,34,45,33,36,178,178,122,122,6,9,12,13,0.4,0.5
2026-07-21T1300,3340A,112.6005,34.6323,洛阳市,伊滨,臭氧1小时(O3_1h),83,32,51,29,33,186,186,120,120,8,13,7,7,0.4,0.5
2026-07-21T1300,3341A,112.495,34.6338,洛阳市,中移产业园,臭氧1小时(O3_1h),72,51,62,38,40,177,177,113,113,3,8,8,8,1.0,1.1
2026-07-21T1300,3593A,112.5736,34.8993,洛阳市,吉利监测站,臭氧1小时(O3_1h),64,47,63,31,35,171,171,123,123,6,10,8,8,0.3,0.4
2026-07-21T1300,3635A,112.3678,34.6623,洛阳市,河科大西苑校区,臭氧1小时(O3_1h),87,59,58,37,39,189,189,131,131,6,9,15,15,0.9,0.8
2026-07-21T1300,3636A,112.4387,34.678,洛阳市,英才小学,臭氧1小时(O3_1h),65,62,62,34,39,172,172,114,114,12,8,23,11,1.2,0.9
2026-07-21T1300,4214A,112.460027,34.694929,洛阳市,春都路1号院,臭氧1小时(O3_1h),57,41,52,36,39,165,165,105,105,6,9,2,2,0.5,0.5
2026-07-21T1300,2399A,114.051,33.5721,漯河市,三五一五工厂,NA,NA,NA,37,NA,27,159,159,95,95,10,19,5,5,0.5,0.2
2026-07-21T1300,2400A,114.0055,33.5698,漯河市,漯河大学,臭氧1小时(O3_1h),58,33,37,19,27,166,166,102,102,9,16,5,6,0.5,0.5
2026-07-21T1300,2401A,114.0134,33.5826,漯河市,市水利局,臭氧1小时(O3_1h),59,29,34,21,25,167,167,102,102,8,13,6,6,0.6,0.6
2026-07-21T1300,2402A,114.0261,33.5697,漯河市,市广电局,臭氧1小时(O3_1h),60,29,32,27,24,168,168,103,103,4,15,4,4,0.5,0.5
2026-07-21T1300,3478A,113.9691,33.568,漯河市,市图书馆,,49,34,41,19,24,155,155,95,95,8,17,5,10,0.6,0.7
2026-07-21T1300,4250A,114.089259,33.588274,漯河市,韶山路11号,"颗粒物(PM10),臭氧1小时(O3_1h)",52,52,46,26,28,161,161,96,96,6,15,7,7,0.4,0.4
2026-07-21T1300,1798A,118.5084,31.6838,马鞍山市,湖东路四小,颗粒物(PM10),51,51,23,8,7,135,135,74,74,7,15,10,10,0.7,0.8
2026-07-21T1300,1799A,118.5019,31.6449,马鞍山市,开发区,,46,32,20,7,8,146,146,75,75,2,11,7,8,0.7,0.8
2026-07-21T1300,3633A,118.4914,31.681,马鞍山市,雨山,,45,NA,18,18,10,144,144,74,74,11,17,10,9,0.9,1.1
2026-07-21T1300,4191A,118.527362,31.722269,马鞍山市,慈湖高新区,,44,22,16,12,9,138,138,74,74,9,17,8,8,0.6,0.6
2026-07-21T1300,1686A,111.0285,21.469,茂名市,电白南海,颗粒物(PM10),51,51,42,21,20,54,54,59,51,10,6,2,2,0.5,0.4
2026-07-21T1300,1687A,110.9294,21.6533,茂名市,茂石化七小,,44,44,46,25,23,36,36,41,36,16,10,12,8,0.4,0.3
2026-07-21T1300,1688A,110.9108,21.6688,茂名市,健康路,,36,34,38,25,21,35,35,47,38,13,8,7,5,0.7,0.6
2026-07-21T1300,1689A,110.8592,21.6826,茂名市,高岭,,29,29,47,14,23,38,38,43,35,10,9,10,8,/,/
2026-07-21T1300,3450A,111.0101,21.5165,茂名市,电白水东,,48,48,33,28,20,38,38,58,47,18,6,6,3,/,/
2026-07-21T1300,2540A,103.8414,30.0871,眉山市,气象局,臭氧1小时(O3_1h),87,31,36,8,18,189,189,83,83,14,44,10,10,0.6,0.7
2026-07-21T1300,3148A,103.829,30.0563,眉山市,区人社局,臭氧1小时(O3_1h),92,42,41,8,9,193,193,94,94,17,38,9,13,0.6,0.6
2026-07-21T1300,4148A,103.8836,30.0695,眉山市,眉职院,臭氧1小时(O3_1h),104,27,42,10,16,207,207,81,81,11,33,10,8,0.6,0.6
2026-07-21T1300,1690A,116.1248,24.3307,梅州市,梅江月梅,,37,37,26,20,11,60,60,37,37,3,8,/,/,/,/
2026-07-21T1300,1691A,116.0798,24.2719,梅州市,梅县新城,,41,41,22,19,11,62,62,36,36,5,12,9,9,0.5,0.5
2026-07-21T1300,3315A,116.1234,24.2994,梅州市,梅龙,NA,NA,NA,19,25,11,52,52,34,34,4,7,6,6,0.5,0.6
2026-07-21T1300,1878A,104.7775,31.4741,绵阳市,富乐山,臭氧1小时(O3_1h),82,36,38,16,21,185,185,96,96,10,14,14,13,0.7,0.8
2026-07-21T1300,1880A,104.6698,31.4668,绵阳市,高新区自来水公司,臭氧1小时(O3_1h),101,47,48,21,23,202,202,104,104,10,22,13,13,0.7,0.8
2026-07-21T1300,3491A,104.6899,31.5324,绵阳市,西科大附属小学,臭氧1小时(O3_1h),70,32,44,23,34,176,176,92,92,10,18,7,7,0.3,0.4
2026-07-21T1300,3492A,104.5647,31.5343,绵阳市,安州区旅游局,臭氧1小时(O3_1h),94,49,41,20,22,195,195,59,NA,7,10,7,7,0.5,0.4
2026-07-21T1300,4146A,104.7092,31.4972,绵阳市,科技城新区公安局,臭氧1小时(O3_1h),95,42,48,17,21,196,196,98,98,10,18,15,15,0.6,0.6
2026-07-21T1300,4226A,104.765114,31.453094,绵阳市,绵阳市气象局,臭氧1小时(O3_1h),60,27,43,18,22,168,168,82,82,14,21,9,9,0.7,0.7
2026-07-21T1300,1784A,129.61,44.561,牡丹江市,环保大楼,,31,17,16,8,9,99,99,58,58,5,12,7,7,0.4,0.4
2026-07-21T1300,1787A,129.6364,44.6075,牡丹江市,机车工厂,,30,28,29,7,15,93,93,55,55,5,15,6,6,0.3,0.4
2026-07-21T1300,1788A,129.6386,44.5462,牡丹江市,第一中学,,33,12,21,3,6,104,104,64,64,5,10,15,11,0.5,0.5
2026-07-21T1300,4287A,129.5992,44.5964,牡丹江市,东晓云街98号,,30,23,24,8,9,96,96,62,62,6,10,7,7,0.3,0.4
2026-07-21T1300,2531A,105.0703,29.61,内江市,市监测站,臭氧1小时(O3_1h),85,33,39,24,25,188,188,104,104,10,19,10,10,0.6,0.6
2026-07-21T1300,2533A,105.0657,29.5807,内江市,内江二中,臭氧1小时(O3_1h),82,26,40,20,24,185,185,106,106,9,16,7,5,0.4,0.4
2026-07-21T1300,2534A,105.0407,29.5828,内江市,内江日报社,臭氧1小时(O3_1h),84,27,33,22,26,187,187,104,104,6,19,7,7,0.3,0.4
2026-07-21T1300,4147A,105.0433,29.6105,内江市,玉峰路西段888号,臭氧1小时(O3_1h),85,39,37,22,26,188,188,101,101,9,21,10,9,0.5,0.4
2026-07-21T1300,2628A,92.0653,31.4846,那曲市,那曲监测站,,43,19,29,6,14,136,136,96,96,5,9,5,5,0.3,0.4
2026-07-21T1300,4243A,92.0515,31.4787,那曲市,那曲市委宣传部,,45,7,17,3,8,141,141,100,100,4,8,4,4,0.2,0.2
2026-07-21T1300,1291A,115.8887,28.7006,南昌市,省林业公司,,35,NA,9,24,12,68,68,40,40,7,6,5,5,0.6,0.6
2026-07-21T1300,1292A,115.813,28.7443,南昌市,林科所,,30,NA,7,21,10,31,31,26,26,9,13,21,8,0.7,0.7
2026-07-21T1300,1294A,115.8518,28.687,南昌市,建工学校,,28,NA,9,19,10,58,58,35,35,6,8,6,7,0.4,0.4
2026-07-21T1300,1295A,115.8926,28.6425,南昌市,象湖,,38,NA,4,26,11,64,64,31,31,7,9,10,9,0.4,0.3
2026-07-21T1300,3046A,115.9084,28.6062,南昌市,机电学校,,33,26,16,23,10,69,69,35,35,7,10,7,6,0.6,0.6
2026-07-21T1300,3690A,115.9718,28.7032,南昌市,外国语学校,,29,29,15,19,10,59,59,33,33,6,6,11,11,0.6,0.6
2026-07-21T1300,4106A,115.7923,28.6873,南昌市,工业二路,,30,30,15,21,10,46,46,30,30,2,5,6,6,0.5,0.5
2026-07-21T1300,4192A,115.931587,28.686774,南昌市,南京东路235号,,33,23,14,23,10,65,65,38,38,8,9,5,5,0.7,0.6
2026-07-21T1300,1906A,106.0791,30.8022,南充市,南充市委,臭氧1小时(O3_1h),77,47,52,24,26,181,181,109,109,8,14,9,8,0.3,0.4
2026-07-21T1300,1907A,106.1038,30.8215,南充市,南充炼油厂,臭氧1小时(O3_1h),101,50,54,22,26,201,201,121,121,7,13,8,7,0.5,0.6
2026-07-21T1300,4227A,106.108336,30.788436,南充市,梨树横街98号,臭氧1小时(O3_1h),85,48,55,22,27,188,188,119,119,8,15,10,9,0.2,0.3
2026-07-21T1300,4304A,106.1172,30.843,南充市,清泉寺北路188号,臭氧1小时(O3_1h),102,45,53,22,28,203,203,117,117,8,12,9,9,0.3,0.3
2026-07-21T1300,4305A,106.067,30.7616,南充市,同庆路1号,臭氧1小时(O3_1h),77,49,52,25,26,181,181,111,111,9,12,9,7,0.4,0.4
2026-07-21T1300,1151A,118.8033,32.1085,南京市,迈皋桥,臭氧1小时(O3_1h),104,21,16,6,7,207,207,111,111,1,2,7,5,0.8,0.5
2026-07-21T1300,1152A,118.7487,32.057,南京市,草场门,臭氧1小时(O3_1h),53,51,28,17,12,162,162,91,91,19,14,13,6,1.3,0.8
2026-07-21T1300,1154A,118.770105,32.004342,南京市,中华门,臭氧1小时(O3_1h),95,51,26,30,16,196,196,92,92,15,12,6,6,0.8,0.5
2026-07-21T1300,1155A,118.8059,32.0329,南京市,瑞金路,臭氧1小时(O3_1h),87,46,18,18,10,189,189,107,107,15,14,4,4,1.3,0.4
2026-07-21T1300,1156A,118.7946,32.0774,南京市,玄武湖,臭氧1小时(O3_1h),83,62,25,11,9,186,186,93,93,12,11,20,7,1.2,0.5
2026-07-21T1300,1157A,118.6415,32.0964,南京市,浦口,,37,11,10,3,0,117,117,79,79,6,6,4,3,0.3,0.2
2026-07-21T1300,1158A,118.730129,32.000956,南京市,奥体中心,臭氧1小时(O3_1h),57,46,23,17,12,165,165,92,92,15,14,9,5,1.2,0.9
2026-07-21T1300,1159A,118.9072,32.1047,南京市,仙林大学城,,50,14,18,3,7,160,160,89,89,11,16,8,8,0.3,0.3
2026-07-21T1300,3422A,118.8443,31.919,南京市,江宁彩虹桥,臭氧1小时(O3_1h),82,28,24,9,11,185,185,111,111,15,16,4,3,0.6,0.6
2026-07-21T1300,3427A,118.8497,32.3599,南京市,六合雄州,,28,12,12,3,2,88,88,68,68,6,9,4,4,0.5,0.5
2026-07-21T1300,4086A,118.7641,32.0841,南京市,新模范马路66号,臭氧1小时(O3_1h),90,56,23,20,6,192,192,96,96,10,5,16,5,1.8,0.7
2026-07-21T1300,4249A,118.8707617,31.34017673,南京市,汶溪路181号,,45,12,12,3,6,141,141,83,83,2,7,3,3,0.6,0.7
2026-07-21T1300,4312A,119.019,31.6512,南京市,中山西路1号,,45,14,17,3,11,144,144,76,76,7,14,4,4,0.6,0.8
2026-07-21T1300,1401A,108.3098,22.788,南宁市,二十一中,,25,19,20,17,12,71,71,38,38,8,13,1,1,0.8,0.8
2026-07-21T1300,1402A,108.3135,22.8529,南宁市,北湖,,30,NA,20,21,15,66,66,36,36,9,15,2,2,0.6,0.6
2026-07-21T1300,1403A,108.3205,22.8222,南宁市,市监测站,,33,33,21,17,11,74,74,39,39,8,13,3,2,0.3,0.2
2026-07-21T1300,1404A,108.3828,22.8038,南宁市,大自然花园,,27,27,17,17,11,62,62,40,40,7,12,4,4,0.7,0.5
2026-07-21T1300,1406A,108.2397,22.8462,南宁市,区农职院,,22,18,23,15,17,69,69,32,32,7,11,3,4,0.8,1
2026-07-21T1300,1407A,108.3285,22.7356,南宁市,英华嘉园,,29,29,21,20,12,56,56,35,35,13,13,8,4,0.8,0.6
2026-07-21T1300,3401A,108.4829,22.762,南宁市,红星社区,,32,25,15,22,8,63,63,43,43,5,7,5,5,0.7,0.5
2026-07-21T1300,4132A,108.2927,23.1477,南宁市,起凤路9号,,28,16,20,10,14,88,88,47,47,6,10,1,2,0.6,0.6
2026-07-21T1300,4221A,108.2177,22.7774,南宁市,乐贤路16号,,24,24,24,11,12,64,64,29,29,8,19,4,4,0.4,0.5
2026-07-21T1300,2332A,118.1682,26.6371,南平市,南平市监测站,,26,26,18,13,8,69,69,40,40,3,7,4,4,0.6,0.6
2026-07-21T1300,2334A,118.1757,26.6276,南平市,南平七中,,36,36,22,13,7,68,68,36,36,2,5,3,3,0.4,0.4
2026-07-21T1300,1168A,120.9056,31.9669,南通市,狼山街道,,45,34,12,31,12,131,131,72,72,17,15,5,3,0.9,0.5
2026-07-21T1300,1170A,120.8635,32.0231,南通市,城中,,41,41,20,23,14,129,129,59,59,15,21,5,3,0.9,0.9
2026-07-21T1300,1171A,120.9376,31.9301,南通市,星湖花园,细颗粒物(PM2.5),52,NA,15,36,15,153,153,81,81,10,17,4,3,0.9,0.6
2026-07-21T1300,1172A,120.8053,32.046,南通市,紫琅学院,,39,22,15,19,13,124,124,64,64,10,25,4,5,0.8,0.8
2026-07-21T1300,3291A,121.0631,32.0644,南通市,通州监测站,,42,39,22,26,16,132,132,59,59,13,15,8,7,1.0,0.8
2026-07-21T1300,3432A,120.9348,31.9874,南通市,环境教育馆,,42,31,20,29,11,124,124,63,63,12,20,5,5,0.9,0.7
2026-07-21T1300,4091A,120.8692,31.9885,南通市,洪江路,,46,34,14,32,14,100,100,55,55,29,19,6,4,1.4,0.9
2026-07-21T1300,2404A,112.5338,33.0086,南阳市,瓦房庄,臭氧1小时(O3_1h),58,43,40,22,20,166,166,102,102,7,14,6,6,0.6,0.7
2026-07-21T1300,2405A,112.5002,32.9734,南阳市,汉画馆,臭氧1小时(O3_1h),57,43,43,23,20,165,165,107,107,7,15,6,6,0.5,0.5
2026-07-21T1300,2406A,112.5778,33.0144,南阳市,气象站,臭氧1小时(O3_1h),79,43,38,26,21,183,183,113,113,8,16,6,6,0.5,0.5
2026-07-21T1300,2407A,112.548,32.9687,南阳市,理工学院,臭氧1小时(O3_1h),64,45,40,23,24,171,171,105,105,8,17,8,7,0.5,0.5
2026-07-21T1300,4008A,112.5233,32.9921,南阳市,卧龙区政府,臭氧1小时(O3_1h),58,30,39,27,23,166,166,105,105,5,12,5,5,0.7,0.7
2026-07-21T1300,1234A,121.8352,29.9111,宁波市,区环保大楼,,47,43,41,20,18,149,149,79,79,21,13,10,6,0.9,0.8
2026-07-21T1300,1235A,121.5595,29.8208,宁波市,万里学院,,31,25,25,10,11,99,99,60,60,4,10,4,4,0.6,0.6
2026-07-21T1300,1236A,121.713,29.9564,宁波市,龙赛医院,,49,40,37,18,17,155,155,81,81,8,15,7,8,0.4,0.4
2026-07-21T1300,1240A,121.5855,29.8635,宁波市,太古小学,,30,19,27,6,11,95,95,62,62,1,7,4,5,0.5,0.5
2026-07-21T1300,1241A,121.5239,29.8673,宁波市,市环境监测中心,颗粒物(PM10),98,117,74,10,12,115,115,63,63,4,10,9,10,0.5,0.5
2026-07-21T1300,2871A,121.6156,29.9015,宁波市,万里国际学校,,32,30,27,10,11,101,101,70,70,6,13,6,7,0.4,0.4
2026-07-21T1300,3710A,121.5593,29.8976,宁波市,白沙活动中心,,33,18,17,11,11,103,103,64,64,6,13,7,8,0.3,0.3
2026-07-21T1300,4095A,121.8962,29.7529,宁波市,中科路88号,NA,NA,30,32,16,15,113,113,85,85,NA,4,6,6,0.5,0.5
2026-07-21T1300,2341A,119.5387,26.6611,宁德市,宁德市监测站,颗粒物(PM10),55,57,23,20,10,96,96,44,44,9,15,6,5,0.7,0.7
2026-07-21T1300,3209A,119.5231,26.6562,宁德市,宁德一中,,32,32,19,15,12,96,96,43,43,4,7,11,10,0.4,0.3
2026-07-21T1300,2618A,98.859,25.8541,怒江傈僳族自治州,州监测站,,26,NA,12,18,10,68,68,58,45,3,5,7,6,0.6,0.6
2026-07-21T1300,2619A,98.8607,25.8168,怒江傈僳族自治州,泸水一中,,22,22,17,6,11,62,62,53,38,6,10,4,4,0.5,0.5
2026-07-21T1300,1888A,101.6891,26.571,攀枝花市,弄弄坪,颗粒物(PM10),63,68,56,31,28,162,162,76,76,3,3,28,18,0.7,0.9
2026-07-21T1300,1889A,101.577,26.5914,攀枝花市,河门口,臭氧1小时(O3_1h),88,71,47,39,24,190,190,76,76,24,18,55,20,3.9,1.4
2026-07-21T1300,1891A,101.7365,26.4986,攀枝花市,仁和,细颗粒物(PM2.5),74,66,43,47,32,142,142,71,71,9,10,47,14,0.7,0.7
2026-07-21T1300,2835A,101.7222,26.567,攀枝花市,四十中小,颗粒物(PM10),56,58,48,35,31,146,146,72,72,11,21,40,16,0.9,1.1
2026-07-21T1300,1604A,122.0303,41.1489,盘锦市,开发区,,35,25,28,10,21,110,110,90,89,5,9,4,4,0.5,0.5
2026-07-21T1300,1605A,122.0486,41.0883,盘锦市,兴隆台,NA,NA,NA,31,NA,23,96,96,75,NA,6,14,6,5,0.6,0.6
2026-07-21T1300,1606A,121.8297,41.1026,盘锦市,新生街道,,35,20,24,12,21,110,110,88,88,8,11,6,6,0.6,0.7
2026-07-21T1300,1832A,113.3257,33.7423,平顶山市,新华旅馆,,38,38,59,22,33,120,120,66,66,8,18,3,3,0.9,0.8
2026-07-21T1300,1833A,113.2917,33.737,平顶山市,规划设计院,NA,NA,43,47,25,30,160,160,100,100,NA,16,6,5,0.6,0.8
2026-07-21T1300,1834A,113.182,33.7738,平顶山市,平顶山工学院,臭氧1小时(O3_1h),60,NA,35,34,28,168,168,116,116,8,12,7,8,0.4,0.4
2026-07-21T1300,3594A,112.8736,33.9068,平顶山市,石龙区,臭氧1小时(O3_1h),68,38,49,29,31,174,174,111,111,8,16,10,10,0.5,0.6
2026-07-21T1300,4116A,113.284,33.7139,平顶山市,姚电大道23号,臭氧1小时(O3_1h),52,NA,49,25,29,161,161,103,103,10,18,8,8,0.8,0.8
2026-07-21T1300,2656A,106.6633,35.5338,平凉市,聚贤嘉苑,,46,25,48,16,15,147,147,92,92,9,15,8,9,0.8,0.7
2026-07-21T1300,2657A,106.7021,35.5307,平凉市,博物馆,颗粒物(PM10),68,75,58,17,15,154,154,101,101,12,11,12,10,0.7,0.6
2026-07-21T1300,2348A,113.8384,27.6436,萍乡市,中医院,,23,23,19,7,6,69,69,33,33,5,13,7,8,0.6,0.8
2026-07-21T1300,2350A,113.8677,27.6438,萍乡市,市环保局,,24,NA,12,13,8,74,74,40,40,1,8,11,10,0.3,0.5
2026-07-21T1300,2351A,113.8663,27.6202,萍乡市,安源区政府,,20,12,16,7,7,64,64,32,32,2,8,6,8,0.4,0.6
2026-07-21T1300,4107A,113.8686,27.6668,萍乡市,联洪村委会,,26,26,17,12,8,79,79,34,34,3,8,8,8,0.5,0.6
2026-07-21T1300,2319A,119.0142,25.4324,莆田市,荔城区仓后路,,45,44,32,31,17,109,109,55,55,7,12,/,/,/,/
2026-07-21T1300,2320A,119.0016,25.4553,莆田市,莆田市监测站,,49,49,32,20,18,108,108,56,56,6,9,4,3,0.3,0.4
2026-07-21T1300,2321A,119.112,25.4561,莆田市,涵江区六中,,45,45,33,27,16,123,123,56,56,8,15,/,/,0.7,0.7
2026-07-21T1300,2322A,119.1014,25.3215,莆田市,秀屿区政府,颗粒物(PM10),57,59,31,33,15,117,117,68,68,6,11,7,7,0.6,0.6
2026-07-21T1300,2392A,115.0312,35.7636,濮阳市,环保局,臭氧1小时(O3_1h),55,53,44,32,27,164,164,111,111,8,11,3,5,0.8,0.7
2026-07-21T1300,3021A,115,35.7667,濮阳市,濮水河管理处,,47,38,45,23,28,149,149,97,97,4,9,3,3,0.7,0.7
2026-07-21T1300,4118A,115.0552,35.7816,濮阳市,中原东路68号,颗粒物(PM10),64,69,66,15,23,156,156,104,104,6,10,4,11,0.9,0.8
2026-07-21T1300,4216A,115.0923632,35.76857718,濮阳市,任丘路479号,颗粒物(PM10),58,61,71,33,30,164,164,98,98,3,8,3,6,0.2,0.5
2026-07-21T1300,2601A,100.9801,22.7634,普洱市,市环保局,,29,29,34,14,14,66,66,33,33,5,4,6,6,0.6,0.7
2026-07-21T1300,2602A,100.9763,22.8237,普洱市,普洱第二中学,,30,30,31,12,12,65,65,34,34,4,5,9,8,0.6,0.7
2026-07-21T1300,3345A,131.0413,45.7795,七台河市,中波台,NA,NA,NA,12,NA,12,NA,NA,85,NA,NA,15,NA,6,NA,0.5
2026-07-21T1300,3637A,131.0136,45.7688,七台河市,人民广场,,25,16,29,8,13,78,78,57,57,6,23,8,7,0.4,0.6
2026-07-21T1300,3684A,130.8639,45.8144,七台河市,新建矿广场,,33,17,25,15,16,104,104,80,80,7,21,5,7,0.4,0.5
2026-07-21T1300,1779A,123.9307,47.3641,齐齐哈尔市,安居小区,NA,NA,18,23,3,8,NA,NA,89,89,4,8,4,4,0.6,0.6
2026-07-21T1300,1780A,123.9497,47.3389,齐齐哈尔市,中心广场,,36,29,24,9,9,115,115,89,89,6,9,5,5,0.5,0.5
2026-07-21T1300,1781A,123.9483,47.3229,齐齐哈尔市,农牧车辆厂,,37,24,33,8,10,116,116,88,88,4,8,6,6,0.2,0.2
2026-07-21T1300,1783A,123.9442,47.2994,齐齐哈尔市,市环境监测站,,35,19,21,14,12,110,110,83,83,4,7,3,3,0.5,0.5
2026-07-21T1300,3662A,123.6341,47.2079,齐齐哈尔市,富区青少年活动中心,,34,29,26,3,10,106,106,83,83,6,8,4,4,0.5,0.4
2026-07-21T1300,2591A,107.9765,26.5724,黔东南苗族侗族自治州,市环境监测站,,32,23,21,16,18,102,102,50,50,2,10,2,2,0.4,0.5
2026-07-21T1300,2881A,107.8909,26.531,黔东南苗族侗族自治州,凯里学院,,37,NA,18,24,16,117,117,60,60,3,7,2,2,0.4,0.5
2026-07-21T1300,2593A,107.5223,26.2371,黔南布依族苗族自治州,小围寨,,35,27,19,15,13,111,111,51,51,4,7,6,4,0.4,0.4
2026-07-21T1300,3538A,107.5175,26.2977,黔南布依族苗族自治州,沙坝,NA,NA,29,22,16,11,119,119,52,52,3,7,NA,3,0.5,0.6
2026-07-21T1300,2589A,104.9022,25.0943,黔西南布依族苗族自治州,场坝街,,44,NA,26,21,17,139,139,80,80,8,12,6,15,0.3,0.3
2026-07-21T1300,2590A,104.8812,25.0994,黔西南布依族苗族自治州,坪东大道,,45,NA,29,26,16,141,141,77,77,6,15,8,8,0.4,0.4
2026-07-21T1300,2502A,108.6238,21.9667,钦州市,市环保站,,15,NA,13,10,7,40,40,44,44,8,13,4,6,0.7,0.7
2026-07-21T1300,2503A,108.655,21.9481,钦州市,沙埠小学,NA,NA,NA,19,NA,7,NA,NA,73,NA,NA,11,NA,6,NA,0.6
2026-07-21T1300,2504A,108.5989,21.7435,钦州市,港区一小,,32,32,20,10,7,38,38,43,43,16,17,4,4,1.3,0.9
2026-07-21T1300,3404A,108.5959,21.9634,钦州市,北职校,,15,13,17,3,9,45,45,46,46,10,13,4,5,0.6,0.6
2026-07-21T1300,1046A,119.5247,39.9346,秦皇岛市,建设大厦,,37,22,48,10,19,116,116,81,81,8,19,5,7,0.3,0.4
2026-07-21T1300,3132A,119.5979,39.938,秦皇岛市,文明里,,39,39,45,16,18,109,109,76,76,2,10,7,7,0.3,0.3
2026-07-21T1300,4066A,119.7458,39.9952,秦皇岛市,南园路157号,,32,NA,26,12,18,102,102,79,79,2,11,4,5,0.3,0.3
2026-07-21T1300,4067A,119.5131,39.8858,秦皇岛市,翠岛大街1号,,33,22,24,13,15,103,103,76,74,4,7,4,4,0.4,0.4
2026-07-21T1300,4198A,119.509013,39.825305,秦皇岛市,北戴河轮滑馆,,35,31,32,16,13,109,109,84,84,7,9,6,6,0.4,0.4
2026-07-21T1300,1310A,120.404,36.0625,青岛市,市南区东部子站,,41,14,13,8,11,129,129,79,79,6,8,7,7,0.3,0.3
2026-07-21T1300,1311A,120.362344,36.10282,青岛市,四方区子站,NA,NA,NA,16,NA,11,152,152,85,85,9,10,8,10,0.8,0.7
2026-07-21T1300,1312A,120.294373,36.054183,青岛市,市南区西部子站,,39,17,12,8,10,122,122,80,80,16,16,6,6,0.6,0.6
2026-07-21T1300,1313A,120.4581,36.0858,青岛市,崂山区子站,,43,14,12,6,9,136,136,90,90,12,10,8,7,0.2,0.2
2026-07-21T1300,1315A,120.3945,36.3083,青岛市,城阳区子站,臭氧1小时(O3_1h),84,41,22,16,12,187,187,110,110,14,13,5,4,0.4,0.4
2026-07-21T1300,3642A,120.3454,36.0735,青岛市,市北区南部,,39,18,14,8,9,124,124,87,87,13,16,6,6,0.8,0.8
2026-07-21T1300,3643A,120.3897,36.18,青岛市,李沧区北部,,50,31,16,16,11,158,158,99,99,17,16,4,4,0.6,0.6
2026-07-21T1300,4110A,120.5222,36.4089,青岛市,盟旺路653号,,37,17,16,3,8,116,116,92,92,7,9,6,7,0.7,0.7
2026-07-21T1300,4290A,120.196923,35.954556,青岛市,珠江路669号,,50,22,11,12,9,157,157,94,94,13,17,4,4,0.5,0.5
2026-07-21T1300,4291A,120.0424,35.8656,青岛市,黄岛区人民政府广场,,40,9,10,3,5,128,128,91,91,11,12,6,5,0.6,0.6
2026-07-21T1300,1703A,113.0218,23.7086,清远市,凤城街办,,18,18,28,11,14,47,47,38,38,13,16,/,/,/,/
2026-07-21T1300,3025A,113.0479,23.6343,清远市,技师学院,,22,22,26,13,13,43,43,37,37,16,20,4,5,0.5,0.5
2026-07-21T1300,3318A,112.9898,23.7403,清远市,清新太和,,22,22,34,11,17,58,58,42,42,9,16,6,6,0.5,0.5
2026-07-21T1300,3455A,113.076,23.72,清远市,清城东城,,18,18,25,6,12,51,51,40,40,9,12,/,/,/,/
2026-07-21T1300,2661A,107.6325,35.7357,庆阳市,庆阳五中,,41,39,56,17,19,131,131,103,102,8,8,6,6,0.5,0.5
2026-07-21T1300,2662A,107.6361,35.7067,庆阳市,市环保局,,45,45,57,18,22,118,118,99,98,11,11,10,9,0.6,0.6
2026-07-21T1300,1916A,103.7897,25.5036,曲靖市,环境监测站,NA,NA,54,39,NA,NA,172,172,80,80,14,22,4,4,0.7,0.7
2026-07-21T1300,1917A,103.8013,25.5357,曲靖市,烟厂办公区,,49,36,43,18,19,155,155,73,73,9,18,5,6,0.7,0.8
2026-07-21T1300,3376A,103.7926,25.4651,曲靖市,南苑二区,,48,34,37,21,19,152,152,80,80,10,14,4,4,0.5,0.4
2026-07-21T1300,3377A,103.7442,25.5259,曲靖市,曲靖师范学院,,48,NA,33,21,20,153,153,72,72,20,21,10,7,0.7,0.5
2026-07-21T1300,1264A,118.8694,28.94,衢州市,环保大楼,,24,24,24,13,12,76,76,44,44,7,12,/,/,/,/
2026-07-21T1300,1266A,118.8622,28.9809,衢州市,衢州学院,,23,18,19,11,12,72,72,43,43,6,13,4,4,0.5,0.5
2026-07-21T1300,4097A,118.9646,28.9832,衢州市,衢州三中,,24,19,22,9,10,75,75,40,40,7,13,4,4,0.7,0.8
2026-07-21T1300,1611A,118.5818,24.9116,泉州市,涂山街,,50,50,37,17,18,110,110,61,61,7,18,2,4,0.7,0.6
2026-07-21T1300,1612A,118.597,24.8976,泉州市,津头埔,颗粒物(PM10),53,53,37,22,18,100,100,57,57,7,16,2,2,0.4,0.4
2026-07-21T1300,1613A,118.6669,24.9422,泉州市,万安,,48,48,33,26,17,101,101,60,60,7,13,4,4,0.4,0.5
2026-07-21T1300,4105A,118.6355,24.9148,泉州市,霞新路6号,,40,40,29,18,17,98,98,62,62,7,15,/,/,0.5,0.5
2026-07-21T1300,2626A,88.8873,29.2723,日喀则市,日喀则监测站,,42,6,8,3,3,133,133,145,133,4,5,6,7,0.2,0.2
2026-07-21T1300,3726A,88.8775,29.2425,日喀则市,林业技术推广中心,,42,7,10,3,1,134,134,131,122,3,3,6,4,0.2,0.2
2026-07-21T1300,1659A,119.4711,35.421,日照市,监测站,,44,44,9,18,7,131,131,70,70,28,16,17,8,1.2,0.5
2026-07-21T1300,1660A,119.523,35.4216,日照市,市政府广场,,43,36,9,11,6,135,135,80,80,11,9,14,9,1.0,0.5
2026-07-21T1300,1661A,119.5511,35.4113,日照市,港务局,,48,27,11,20,6,151,151,90,90,12,10,16,7,1.6,0.8
2026-07-21T1300,3507A,119.5326,35.4627,日照市,职业技术学院,,42,12,11,10,7,132,132,83,83,10,10,11,8,0.7,0.4
2026-07-21T1300,3604A,119.3267,35.1043,日照市,岚山环保分局,臭氧1小时(O3_1h),82,75,26,49,15,185,185,103,103,19,13,30,16,2.7,1.1
2026-07-21T1300,1835A,111.1922,34.7752,三门峡市,市政府,细颗粒物(PM2.5),64,65,58,42,34,143,143,128,126,6,9,7,8,0.7,0.7
2026-07-21T1300,1836A,111.1588,34.794,三门峡市,开发区,细颗粒物(PM2.5),68,44,73,44,37,141,141,118,118,10,12,6,7,0.6,0.6
2026-07-21T1300,3039A,111.1911,34.7829,三门峡市,三门峡市第一小学,颗粒物(PM10),67,73,63,40,35,144,144,123,123,7,9,7,7,0.7,0.7
2026-07-21T1300,3598A,111.1031,34.719,三门峡市,富达温泉假日酒店,颗粒物(PM10),53,54,55,28,38,137,137,114,114,12,14,4,5,0.7,0.7
2026-07-21T1300,2324A,117.621,26.2626,三明市,三钢,,34,34,21,18,15,86,86,40,40,7,11,11,8,1.0,1
2026-07-21T1300,2325A,117.6352,26.2714,三明市,三明二中,NA,NA,70,23,22,14,92,92,42,42,8,10,NA,7,0.8,0.8
2026-07-21T1300,2326A,117.6028,26.2377,三明市,三元区政府,,37,37,19,23,14,84,84,40,40,3,8,7,8,0.5,0.7
2026-07-21T1300,1877A,109.4962,18.2682,三亚市,河西子站,,50,50,43,27,23,86,86,72,72,3,7,3,3,0.3,0.3
2026-07-21T1300,3540A,109.7348,18.3443,三亚市,君悦子站,NA,NA,NA,44,NA,20,84,84,68,68,7,8,2,2,0.2,0.2
2026-07-21T1300,4135A,109.1714,18.3739,三亚市,城东小学站,,40,40,43,16,21,80,80,58,58,8,8,/,/,/,/
2026-07-21T1300,2624A,91.7592,29.234,山南市,山南监测站,,39,6,7,3,5,124,124,120,105,3,4,6,6,0.2,0.2
2026-07-21T1300,2625A,91.7701,29.2436,山南市,山南人民医院,,40,8,10,3,3,126,126,118,105,3,4,7,5,0.1,0.1
2026-07-21T1300,1674A,116.6795,23.3666,汕头市,金平子站,,44,44,30,18,18,75,75,48,48,9,17,4,4,0.6,0.7
2026-07-21T1300,1675A,116.7248,23.3632,汕头市,龙湖子站,,42,42,37,18,17,66,66,43,43,5,10,5,5,/,/
2026-07-21T1300,1676A,116.7257,23.2774,汕头市,濠江子站,颗粒物(PM10),54,55,34,22,18,70,70,46,46,3,10,6,6,/,/
2026-07-21T1300,1677A,116.7518,23.4712,汕头市,澄海子站,,47,47,31,18,15,85,85,52,52,6,11,4,4,0.5,0.6
2026-07-21T1300,1678A,116.6088,23.2539,汕头市,潮阳子站,,32,32,28,14,18,65,65,46,46,1,8,6,7,0.4,0.5
2026-07-21T1300,3444A,116.4539,23.2684,汕头市,潮南峡山,,33,33,37,22,23,77,77,49,49,5,12,7,7,0.6,0.8
2026-07-21T1300,3624A,116.4069,23.2533,汕头市,潮南子站,,35,35,43,16,25,58,58,44,44,1,13,6,6,/,/
2026-07-21T1300,1693A,115.3653,22.7751,汕尾市,市环保局,,50,50,26,14,16,61,61,44,44,2,7,5,5,0.4,0.5
2026-07-21T1300,1695A,115.362,22.7926,汕尾市,新城中学,,37,37,28,15,16,65,65,48,48,2,9,6,6,0.6,0.6
2026-07-21T1300,2645A,109.9155,33.8714,商洛市,监测站,,49,43,43,31,24,154,154,85,85,7,12,8,8,0.6,0.5
2026-07-21T1300,3045A,109.9647,33.8486,商洛市,商州区中学,,48,46,47,24,21,151,151,88,88,8,14,7,6,0.5,0.4
2026-07-21T1300,2408A,115.6701,34.4283,商丘市,环境监测站,,44,NA,34,16,20,138,138,87,87,4,8,4,5,0.7,0.7
2026-07-21T1300,2409A,115.6458,34.4047,商丘市,粮食局,,43,29,33,24,15,137,137,85,85,4,8,3,3,0.3,0.3
2026-07-21T1300,3171A,115.6069,34.4465,商丘市,梁园区档案局,,45,NA,31,15,16,142,142,93,93,5,8,1,1,0.3,0.4
2026-07-21T1300,4119A,115.6701,34.3767,商丘市,北海东路185号,,44,18,33,16,17,140,140,82,82,3,9,4,4,0.4,0.4
2026-07-21T1300,4120A,115.6172,34.3704,商丘市,中山大街3号,,40,19,37,10,17,125,125,74,74,4,11,4,4,0.4,0.4
2026-07-21T1300,1141A,121.401,31.2382,上海市,普陀,,40,19,25,16,17,128,128,71,71,9,18,5,5,0.3,0.3
2026-07-21T1300,1142A,121.4774,31.2043,上海市,十五厂,,40,29,23,20,18,126,126,72,72,8,15,5,4,0.5,0.5
2026-07-21T1300,1143A,121.4673,31.3011,上海市,虹口,,39,NA,20,17,17,124,124,68,68,3,9,4,4,0.9,0.8
2026-07-21T1300,1147A,121.4253,31.226,上海市,静安监测站,,43,19,22,16,18,136,136,76,76,10,17,7,7,0.8,0.8
2026-07-21T1300,1148A,121.7029,31.1905,上海市,浦东川沙,,45,19,28,16,19,142,142,83,83,7,16,8,8,0.6,0.7
2026-07-21T1300,1149A,121.5339,31.229,上海市,浦东新区监测站,,37,22,21,20,16,116,116,66,66,10,15,6,6,0.7,0.6
2026-07-21T1300,1150A,121.5776,31.2038,上海市,浦东张江,,41,23,20,18,16,130,130,80,80,5,12,6,6,0.4,0.3
2026-07-21T1300,3265A,121.4242,31.3303,上海市,宝山庙行,,40,NA,25,14,17,125,125,65,65,5,14,12,11,0.3,0.3
2026-07-21T1300,3266A,121.8789,31.4662,上海市,崇明上实东滩,,49,21,25,19,18,154,154,76,76,13,13,5,11,0.5,0.5
2026-07-21T1300,3268A,121.316,31.2839,上海市,嘉定南翔,,36,16,22,10,17,113,113,57,57,7,21,4,4,0.3,0.3
2026-07-21T1300,3269A,121.3357,30.7455,上海市,金山新城,,37,37,27,25,19,97,97,68,68,8,8,3,4,0.9,0.8
2026-07-21T1300,3270A,121.4996,31.0741,上海市,闵行浦江,,35,35,24,23,18,108,108,64,64,10,13,6,6,0.6,0.5
2026-07-21T1300,3271A,121.2886,31.1663,上海市,青浦徐泾,,38,17,24,14,17,120,120,62,62,2,10,5,5,0.5,0.5
2026-07-21T1300,3272A,121.2193,31.0382,上海市,松江图书馆,颗粒物(PM10),54,55,59,20,19,115,115,70,70,2,5,6,6,0.7,0.6
2026-07-21T1300,3273A,121.3904,31.206,上海市,长宁仙霞,,36,19,25,15,18,114,114,49,49,11,20,7,7,0.4,0.4
2026-07-21T1300,3274A,121.7964,31.0507,上海市,浦东惠南,,39,20,36,17,21,122,122,80,80,8,18,8,7,0.8,0.8
2026-07-21T1300,3544A,121.4891,30.925,上海市,奉贤南桥新城,,21,21,34,13,19,64,64,56,56,15,13,1,2,0.5,0.6
2026-07-21T1300,4183A,121.417401,31.16637,上海市,冠生园路458号,,30,21,28,20,16,93,93,54,54,7,12,6,6,0.5,0.5
2026-07-21T1300,4205A,121.541914,31.268301,上海市,宁武路151号,,38,25,22,16,17,120,120,69,69,13,19,6,6,0.6,0.6
2026-07-21T1300,2382A,117.9758,28.4439,上饶市,市监测站,,25,20,22,12,10,80,80,48,48,2,4,7,9,/,/
2026-07-21T1300,2383A,117.9521,28.4637,上饶市,凤凰光学,,29,15,17,12,9,91,91,54,54,2,4,4,7,0.3,0.2
2026-07-21T1300,3685A,117.897,28.4316,上饶市,双创科技城,,28,21,22,9,11,88,88,33,NA,4,10,2,6,0.5,0.5
2026-07-21T1300,4211A,118.190438,28.444845,上饶市,裕丰大道,,20,NA,18,14,7,58,58,34,34,2,4,11,11,0.4,0.4
2026-07-21T1300,1669A,113.5821,24.7733,韶关市,市八中,颗粒物(PM10),53,53,35,26,19,80,80,51,51,6,13,14,21,0.5,0.7
2026-07-21T1300,1671A,113.5916,24.7973,韶关市,园林处,,33,30,30,23,22,79,79,50,50,6,14,11,17,/,/
2026-07-21T1300,1673A,113.5971,24.6864,韶关市,曲江监测站,,28,28,27,16,16,69,69,48,48,8,14,7,8,0.6,0.6
2026-07-21T1300,2809A,113.6668,24.7756,韶关市,大学路288号,,50,50,34,19,20,78,78,44,44,5,11,10,14,/,/
2026-07-21T1300,3622A,113.5556,24.8082,韶关市,碧湖山庄,,42,42,30,24,17,75,75,51,51,7,10,5,7,0.5,0.6
2026-07-21T1300,2464A,111.5277,27.2442,邵阳市,市化工厂,,24,24,16,16,15,71,71,66,66,3,4,8,8,0.5,0.4
2026-07-21T1300,2466A,111.4327,27.2276,邵阳市,市环保局,,25,25,18,15,16,71,71,56,53,6,7,3,3,0.5,0.4
2026-07-21T1300,4218A,111.446,27.2472,邵阳市,北塔二期4-26地块,,19,12,17,3,10,58,58,47,44,11,8,4,5,0.5,0.6
2026-07-21T1300,4219A,111.4739,27.2282,邵阳市,邵水西路287号,,26,NA,15,18,14,72,72,61,61,3,4,2,2,0.4,0.4
2026-07-21T1300,1247A,120.6053,29.9927,绍兴市,城东开发委,,30,16,20,8,11,94,94,67,67,2,7,10,9,0.6,0.6
2026-07-21T1300,2921A,120.5482,30.0003,绍兴市,树下王站,,30,14,17,7,13,94,94,64,64,4,10,4,4,0.4,0.5
2026-07-21T1300,3408A,120.5685,29.936,绍兴市,绍兴中专,,29,10,18,8,9,90,90,62,62,2,11,5,5,0.7,0.7
2026-07-21T1300,3409A,120.4905,30.086,绍兴市,柯桥区政府,,36,17,17,14,12,114,114,73,73,6,11,5,6,0.6,0.6
2026-07-21T1300,3410A,120.8751,30.0249,绍兴市,重华小学,,26,14,15,12,9,83,83,52,52,7,10,10,10,0.8,0.8
2026-07-21T1300,3411A,120.837,30.0137,绍兴市,上虞中学,,27,16,22,10,10,86,86,47,47,8,18,9,14,0.7,0.7
