,O3H8_level,regioncode,O3,latitude,CO_level,SYWRW,PM10H24,NO2,O3H8,O3_level,PM10_color,PM25_color,SO2,sitename,O3H8_color,AQI,NO2_level,AQI_level,PM10H24_level,districtcode,SO2_color,longitude,NO2_color,PM25,PM10_level,CO,PM25_level,CO_color,PM25H24_color,sitecode,PM25H24_level,AQI_color,districtname,O3_color,SO2_level,PM10,PM25H24,PM10H24_color,sort,time
0,优,331127,70,28.002222,优,--,27,5,61,优,#00E400,#00E400,5,红星小学,#00E400,22,优,优,优,331100,#00E400,119.636389,#00E400,11,优,0.4,优,#00E400,#00E400,331127003,优,#00E400,丽水市,#00E400,优,17,16,#00E400,1,2026-06-28 12:00:00
1,优,331126,69,27.629585,优,--,14,5,38,优,#00E400,#00E400,4,庆元监测楼,#00E400,22,优,优,优,331100,#00E400,119.054809,#00E400,3,优,0.5,优,#00E400,#00E400,331126001,优,#00E400,丽水市,#00E400,优,4,9,#00E400,1,2026-06-28 12:00:00
2,优,331126,70,27.6211,优,--,13,5,40,优,#00E400,#00E400,5,庆元气象局,#00E400,22,优,优,优,331100,#00E400,119.0788,#00E400,3,优,0.7,优,#00E400,#00E400,331126002,优,#00E400,丽水市,#00E400,优,4,9,#00E400,1,2026-06-28 12:00:00
3,优,331127,72,27.9772,优,--,23,5,58,优,#00E400,#00E400,4,景宁县政府,#00E400,23,优,优,优,331100,#00E400,119.6311,#00E400,13,优,0.5,优,#00E400,#00E400,331127002,优,#00E400,丽水市,#00E400,优,19,15,#00E400,4,2026-06-28 12:00:00
4,优,331123,80,28.5991,优,--,23,7,54,优,#00E400,#00E400,7,遂昌民政局,#00E400,25,优,优,优,331100,#00E400,119.2622,#00E400,13,优,0.6,优,#00E400,#00E400,331123001,优,#00E400,丽水市,#00E400,优,21,13,#00E400,5,2026-06-28 12:00:00
5,优,331123,79,28.5839,优,--,24,8,48,优,#00E400,#00E400,8,遂昌中学,#00E400,25,优,优,优,331100,#00E400,119.2656,#00E400,16,优,0.5,优,#00E400,#00E400,331123002,优,#00E400,丽水市,#00E400,优,24,17,#00E400,5,2026-06-28 12:00:00
6,优,331124,82,28.4505,优,--,23,7,73,优,#00E400,#00E400,5,松阳监测楼,#00E400,26,优,优,优,331100,#00E400,119.4799,#00E400,15,优,0.4,优,#00E400,#00E400,331124001,优,#00E400,丽水市,#00E400,优,23,15,#00E400,7,2026-06-28 12:00:00
7,优,331125,76,28.1173,优,--,23,10,51,优,#00E400,#00E400,7,云和监测楼,#00E400,26,优,优,优,331100,#00E400,119.5626,#00E400,18,优,0.5,优,#00E400,#00E400,331125001,优,#00E400,丽水市,#00E400,优,25,16,#00E400,7,2026-06-28 12:00:00
8,优,330328,64,27.7838,优,--,30,13,43,优,#00E400,#00E400,4,大峃,#00E400,27,优,优,优,330300,#00E400,120.085,#00E400,16,优,0.6,优,#00E400,#00E400,330328001,优,#00E400,温州市,#00E400,优,27,18,#00E400,9,2026-06-28 12:00:00
9,优,330329,86,27.557,优,--,23,8,79,优,#00E400,#00E400,5,罗阳,#00E400,27,优,优,优,330300,#00E400,119.7084,#00E400,12,优,0.4,优,#00E400,#00E400,330329001,优,#00E400,温州市,#00E400,优,21,15,#00E400,9,2026-06-28 12:00:00
10,优,331124,85,28.4516,优,--,24,6,78,优,#00E400,#00E400,5,和平水厂,#00E400,27,优,优,优,331100,#00E400,119.4699,#00E400,13,优,0.5,优,#00E400,#00E400,331124002,优,#00E400,丽水市,#00E400,优,24,14,#00E400,9,2026-06-28 12:00:00
11,优,330727,88,29.051486,优,--,30,10,47,优,#00E400,#00E400,8,国税大楼,#00E400,28,优,优,优,330700,#00E400,120.438346,#00E400,17,优,0.4,优,#00E400,#00E400,330727002,优,#00E400,金华市,#00E400,优,22,19,#00E400,12,2026-06-28 12:00:00
12,优,330727,89,29.039869,优,--,34,6,42,优,#00E400,#00E400,7,南园初中,#00E400,28,优,优,优,330700,#00E400,120.440622,#00E400,14,优,0.7,优,#00E400,#00E400,330727003,优,#00E400,金华市,#00E400,优,24,21,#00E400,12,2026-06-28 12:00:00
13,优,330329,92,27.5438,优,--,24,5,74,优,#00E400,#00E400,6,泰顺实验中学,#00E400,29,优,优,优,330300,#00E400,119.716111,#00E400,4,优,0.4,优,#00E400,#00E400,330329002,优,#00E400,温州市,#00E400,优,7,17,#00E400,14,2026-06-28 12:00:00
14,优,331181,70,28.076,优,--,18,8,39,优,#00E400,#00E400,7,粮食大楼,#00E400,30,优,优,优,331100,#00E400,119.1217,#00E400,21,优,0.6,优,#00E400,#00E400,331181002,优,#00E400,丽水市,#00E400,优,25,10,#00E400,15,2026-06-28 12:00:00
15,优,330822,97,28.901,优,--,42,11,62,优,#00E400,#00E400,6,常山环保大楼,#00E400,31,优,优,优,330800,#00E400,118.5196,#00E400,15,优,0.5,优,#00E400,#00E400,330822001,优,#00E400,衢州市,#00E400,优,31,21,#00E400,16,2026-06-28 12:00:00
16,优,330824,101,29.1478,优,--,36,5,39,优,#00E400,#00E400,8,开化监测大楼,#00E400,32,优,优,优,330800,#00E400,118.4108,#00E400,17,优,0.5,优,#00E400,#00E400,330824002,优,#00E400,衢州市,#00E400,优,23,25,#00E400,17,2026-06-28 12:00:00
17,优,331122,101,28.6628,优,--,27,9,87,优,#00E400,#00E400,7,信访大楼,#00E400,32,优,优,优,331100,#00E400,120.0856,#00E400,12,优,0.5,优,#00E400,#00E400,331122002,优,#00E400,丽水市,#00E400,优,25,15,#00E400,17,2026-06-28 12:00:00
18,优,330783,105,29.30093,优,--,48,7,55,优,#00E400,#00E400,6,广厦学院,#00E400,33,优,优,优,330700,#00E400,120.24157,#00E400,9,优,0.7,优,#00E400,#00E400,330783001,优,#00E400,金华市,#00E400,优,20,24,#00E400,19,2026-06-28 12:00:00
19,优,330784,103,28.90016,优,--,32,9,80,优,#00E400,#00E400,8,西城供电所,#00E400,33,优,优,优,330700,#00E400,120.01452,#00E400,11,优,0.5,优,#00E400,#00E400,330784002,优,#00E400,金华市,#00E400,优,26,18,#00E400,19,2026-06-28 12:00:00
20,优,331121,89,28.1094,优,--,33,19,56,优,#00E400,#00E400,6,青田中学,#00E400,33,优,优,优,331100,#00E400,120.3161,#00E400,22,优,0.5,优,#00E400,#00E400,331121002,优,#00E400,丽水市,#00E400,优,33,21,#00E400,19,2026-06-28 12:00:00
21,优,331181,72,28.08007,优,--,38,6,37,优,#00E400,#00E400,8,龙泉环保大楼,#00E400,33,优,优,优,331100,#00E400,119.1328,#00E400,13,优,0.5,优,#00E400,#00E400,331181001,优,#00E400,丽水市,#00E400,优,33,12,#00E400,19,2026-06-28 12:00:00
22,优,330127,107,29.5995,优,--,28,6,66,优,#00E400,#00E400,9,淳安环保大楼,#00E400,34,优,优,优,330100,#00E400,119.0481,#00E400,16,优,0.5,优,#00E400,#00E400,330127001,优,#00E400,杭州市,#00E400,优,25,19,#00E400,23,2026-06-28 12:00:00
23,优,330328,53,27.804722,优,--,29,26,43,优,#00E400,#00E400,8,文成中学,#00E400,34,优,优,优,330300,#00E400,120.077222,#00E400,19,优,0.4,优,#00E400,#00E400,330328002,优,#00E400,温州市,#00E400,优,34,18,#00E400,23,2026-06-28 12:00:00
24,优,330326,106,27.6593,优,--,40,10,69,优,#00E400,#00E400,6,平阳监测站,#00E400,34,优,优,优,330300,#00E400,120.5705,#00E400,18,优,0.5,优,#00E400,#00E400,330326001,优,#00E400,温州市,#00E400,优,23,23,#00E400,23,2026-06-28 12:00:00
25,优,330824,97,29.1343,优,--,39,4,41,优,#00E400,#00E400,6,开化气象局,#00E400,34,优,优,优,330800,#00E400,118.402,#00E400,18,优,0.4,优,#00E400,#00E400,330824001,优,#00E400,衢州市,#00E400,优,34,19,#00E400,23,2026-06-28 12:00:00
26,优,331121,107,28.1341,优,--,39,17,75,优,#00E400,#00E400,8,塔山小学,#00E400,34,优,优,优,331100,#00E400,120.2936,#00E400,19,优,0.5,优,#00E400,#00E400,331121001,优,#00E400,丽水市,#00E400,优,33,24,#00E400,23,2026-06-28 12:00:00
27,优,331122,111,28.6574,优,--,20,13,94,优,#00E400,#00E400,7,缙云中学,#00E400,35,优,优,优,331100,#00E400,120.0696,#00E400,8,优,0.5,优,#00E400,#00E400,331122001,优,#00E400,丽水市,#00E400,优,12,14,#00E400,28,2026-06-28 12:00:00
28,优,330782,115,29.305096,优,--,45,9,53,优,#00E400,#00E400,6,江东,#00E400,36,优,优,优,330700,#00E400,120.090442,#00E400,17,优,0.6,优,#00E400,#00E400,330782002,优,#00E400,金华市,#00E400,优,27,26,#00E400,29,2026-06-28 12:00:00
29,优,330783,113,29.27739,优,--,50,8,58,优,#00E400,#00E400,8,东阳环保大楼,#00E400,36,优,优,优,330700,#00E400,120.23692,#00E400,13,优,0.5,优,#00E400,#00E400,330783002,优,#00E400,金华市,#00E400,优,21,31,#00E400,29,2026-06-28 12:00:00
30,优,330784,115,28.8854,优,--,29,9,82,优,#00E400,#00E400,7,永康一中,#00E400,36,优,优,优,330700,#00E400,120.0439,#00E400,14,优,0.6,优,#00E400,#00E400,330784001,优,#00E400,金华市,#00E400,优,24,15,#00E400,29,2026-06-28 12:00:00
31,优,330922,115,30.7269,优,--,19,4,95,优,#00E400,#00E400,8,嵊泗菜园,#00E400,36,优,优,优,330900,#00E400,122.4464,#00E400,12,优,0.3,优,#00E400,#00E400,330922001,优,#00E400,舟山市,#00E400,优,14,17,#00E400,29,2026-06-28 12:00:00
32,良,330921,115,30.2669,优,--,29,19,115,优,#00E400,#00E400,6,岱山环保大楼,#FFFF00,36,优,优,优,330900,#00E400,122.2199,#00E400,15,优,0.5,优,#00E400,#00E400,330921001,优,#00E400,舟山市,#00E400,优,20,21,#00E400,29,2026-06-28 12:00:00
33,优,330213,118,29.6506,优,--,40,7,96,优,#00E400,#00E400,9,奉化教育局,#00E400,37,优,优,优,330200,#00E400,121.4042,#00E400,20,优,0.6,优,#00E400,#00E400,330283005,优,#00E400,宁波市,#00E400,优,27,26,#00E400,34,2026-06-28 12:00:00
34,良,330225,117,29.4767,优,--,34,6,102,优,#00E400,#00E400,8,文峰小学,#FFFF00,37,优,优,优,330200,#00E400,121.8864,#00E400,24,优,0.6,优,#00E400,#00E400,330225001,优,#00E400,宁波市,#00E400,优,33,24,#00E400,34,2026-06-28 12:00:00
35,优,330326,116,27.6653,优,--,37,11,72,优,#00E400,#00E400,9,平阳县政府,#00E400,37,优,优,优,330300,#00E400,120.5611,#00E400,22,优,0.8,优,#00E400,#00E400,330326002,优,#00E400,温州市,#00E400,优,28,25,#00E400,34,2026-06-28 12:00:00
36,优,330781,117,29.229931,优,--,40,11,51,优,#00E400,#00E400,6,兰溪八中,#00E400,37,优,优,优,330700,#00E400,119.475172,#00E400,20,优,0.6,优,#00E400,#00E400,330781002,优,#00E400,金华市,#00E400,优,32,26,#00E400,34,2026-06-28 12:00:00
37,优,331023,118,29.1342,优,--,37,11,76,优,#00E400,#00E400,8,天台实验中学,#00E400,37,优,优,优,331000,#00E400,121.0349,#00E400,23,优,0.6,优,#00E400,#00E400,331023002,优,#00E400,台州市,#00E400,优,35,24,#00E400,34,2026-06-28 12:00:00
38,优,330127,119,29.605,优,--,30,8,72,优,#00E400,#00E400,10,老年活动中心,#00E400,38,优,优,优,330100,#00E400,119.0372,#00E400,22,优,0.7,优,#00E400,#00E400,330127T_4,优,#00E400,杭州市,#00E400,优,33,20,#00E400,39,2026-06-28 12:00:00
39,优,330324,88,28.044335,优,--,47,24,54,优,#00E400,#00E400,6,瓯北,#00E400,38,优,优,优,330300,#00E400,120.654963,#00E400,24,优,0.6,优,#00E400,#00E400,330324002,优,#00E400,温州市,#00E400,优,38,29,#00E400,39,2026-06-28 12:00:00
40,优,330683,120,29.5663,优,--,36,7,78,优,#00E400,#00E400,4,丽湖小区,#00E400,38,优,优,优,330600,#00E400,120.8173,#00E400,12,优,0.5,优,#00E400,#00E400,330683002,优,#00E400,绍兴市,#00E400,优,19,24,#00E400,39,2026-06-28 12:00:00
41,优,331023,119,29.1504,优,--,35,10,74,优,#00E400,#00E400,6,育青中学,#00E400,38,优,优,优,331000,#00E400,121.0091,#00E400,23,优,0.6,优,#00E400,#00E400,331023001,优,#00E400,台州市,#00E400,优,36,23,#00E400,39,2026-06-28 12:00:00
42,优,330122,126,29.7955,优,--,33,5,71,优,#00E400,#00E400,6,桐庐江南,#00E400,40,优,优,优,330100,#00E400,119.6874,#00E400,15,优,0.3,优,#00E400,#00E400,330122001,优,#00E400,杭州市,#00E400,优,25,20,#00E400,43,2026-06-28 12:00:00
43,优,330213,128,29.693,优,--,40,8,75,优,#00E400,#00E400,5,溪口政府大楼,#00E400,40,优,优,优,330200,#00E400,121.2774,#00E400,17,优,0.4,优,#00E400,#00E400,330283T_1,优,#00E400,宁波市,#00E400,优,23,29,#00E400,43,2026-06-28 12:00:00
44,良,330305,128,27.8342,优,--,32,10,122,优,#00E400,#00E400,4,洞头气象局,#FFFF00,40,优,优,优,330300,#00E400,121.1502,#00E400,28,优,0.6,优,#00E400,#00E400,330305001,优,#00E400,温州市,#00E400,优,30,26,#00E400,43,2026-06-28 12:00:00
45,优,330382,112,28.1209,优,--,39,12,80,优,#00E400,#00E400,4,乐成,#00E400,40,优,优,优,330300,#00E400,120.9659,#00E400,28,优,0.7,优,#00E400,#00E400,330382001,优,#00E400,温州市,#00E400,优,39,25,#00E400,43,2026-06-28 12:00:00
46,优,330681,125,29.6818,优,--,39,2,55,优,#00E400,#00E400,6,杨树畈,#00E400,40,优,优,优,330600,#00E400,120.2359,#00E400,12,优,0.4,优,#00E400,#00E400,330681001,优,#00E400,绍兴市,#00E400,优,20,28,#00E400,43,2026-06-28 12:00:00
47,优,330782,125,29.335473,优,--,49,13,59,优,#00E400,#00E400,3,北苑,#00E400,40,优,优,优,330700,#00E400,120.078609,#00E400,24,优,0.6,优,#00E400,#00E400,330782001,优,#00E400,金华市,#00E400,优,31,33,#00E400,43,2026-06-28 12:00:00
48,良,330921,125,30.2517,优,--,29,11,114,优,#00E400,#00E400,10,岱山高亭,#FFFF00,40,优,优,优,330900,#00E400,122.1958,#00E400,16,优,0.5,优,#00E400,#00E400,330921002,优,#00E400,舟山市,#00E400,优,24,20,#00E400,43,2026-06-28 12:00:00
49,良,331083,127,28.2221,优,--,36,15,116,优,#00E400,#00E400,7,楚门中心小学,#FFFF00,40,优,优,优,331000,#00E400,121.2846,#00E400,27,优,0.9,优,#00E400,#00E400,331021002,优,#00E400,台州市,#00E400,优,35,29,#00E400,43,2026-06-28 12:00:00
50,优,330782,128,29.2637,优,--,49,10,63,优,#00E400,#00E400,3,儿童公园,#00E400,40,优,优,优,330700,#00E400,120.0321,#00E400,22,优,0.5,优,#00E400,#00E400,330782004,优,#00E400,金华市,#00E400,优,33,31,#00E400,43,2026-06-28 12:00:00
51,优,330483,131,30.625,优,--,58,9,83,优,#00E400,#00E400,5,振东新六中站,#00E400,41,优,优,良,330400,#00E400,120.5613,#00E400,22,优,0.5,优,#00E400,#00E400,330483002,优,#00E400,嘉兴市,#00E400,优,25,32,#FFFF00,52,2026-06-28 12:00:00
52,良,330212,131,29.7736,优,--,36,4,115,优,#00E400,#00E400,4,钱湖水厂,#FFFF00,41,优,优,优,330200,#00E400,121.6330,#00E400,18,优,0.5,优,#00E400,#00E400,2013302120001,优,#00E400,宁波市,#00E400,优,25,24,#00E400,52,2026-06-28 12:00:00
53,优,330122,133,29.8058,优,--,36,5,76,优,#00E400,#00E400,4,桐庐江北,#00E400,42,优,优,优,330100,#00E400,119.669,#00E400,20,优,0.6,优,#00E400,#00E400,330122002,优,#00E400,杭州市,#00E400,优,29,24,#00E400,54,2026-06-28 12:00:00
54,优,330182,133,29.4638,优,--,41,6,63,优,#00E400,#00E400,5,第二中学,#00E400,42,优,优,优,330100,#00E400,119.2821,#00E400,18,优,0.5,优,#00E400,#00E400,330182002,优,#00E400,杭州市,#00E400,优,30,28,#00E400,54,2026-06-28 12:00:00
55,良,330213,132,29.6774,优,--,45,10,114,优,#00E400,#00E400,6,大桥市场,#FFFF00,42,优,优,优,330200,#00E400,121.4237,#00E400,16,优,0.6,优,#00E400,#00E400,330213001,优,#00E400,宁波市,#00E400,优,24,31,#00E400,54,2026-06-28 12:00:00
56,良,330225,132,29.2003,优,--,38,11,116,优,#00E400,#00E400,9,石浦新港小学,#FFFF00,42,优,优,优,330200,#00E400,121.934,#00E400,23,优,0.6,优,#00E400,#00E400,330225002,优,#00E400,宁波市,#00E400,优,33,28,#00E400,54,2026-06-28 12:00:00
57,优,330521,132,30.5231,优,--,57,2,76,优,#00E400,#00E400,8,地信科创园,#00E400,42,优,优,良,330500,#00E400,119.9781,#00E400,9,优,0.4,优,#00E400,#FFFF00,330521001,良,#00E400,湖州市,#00E400,优,12,41,#FFFF00,54,2026-06-28 12:00:00
58,优,330624,134,29.5036,优,--,38,9,79,优,#00E400,#00E400,5,钟楼站,#00E400,42,优,优,优,330600,#00E400,120.8938,#00E400,16,优,0.4,优,#00E400,#00E400,330624001,优,#00E400,绍兴市,#00E400,优,23,24,#00E400,54,2026-06-28 12:00:00
59,优,330624,132,29.4938,优,--,34,8,80,优,#00E400,#00E400,4,城东站,#00E400,42,优,优,优,330600,#00E400,120.9109,#00E400,12,优,0.5,优,#00E400,#00E400,330624002,优,#00E400,绍兴市,#00E400,优,21,23,#00E400,54,2026-06-28 12:00:00
60,优,331022,94,29.11779,优,--,41,10,76,优,#00E400,#00E400,6,三门环监楼,#00E400,42,优,优,优,331000,#00E400,121.382189,#00E400,29,优,0.5,优,#00E400,#00E400,331022001,优,#00E400,台州市,#00E400,优,38,28,#00E400,54,2026-06-28 12:00:00
61,优,331081,109,28.39136,优,--,33,9,92,优,#00E400,#00E400,3,之江高级中学,#00E400,42,优,优,优,331000,#00E400,121.37696,#00E400,29,优,0.4,优,#00E400,#00E400,331081002,优,#00E400,台州市,#00E400,优,37,27,#00E400,54,2026-06-28 12:00:00
62,优,330681,136,29.7257,优,--,41,4,64,优,#00E400,#00E400,7,城新小学,#00E400,43,优,优,优,330600,#00E400,120.272,#00E400,17,优,0.3,优,#00E400,#00E400,330681505,优,#00E400,绍兴市,#00E400,优,21,28,#00E400,63,2026-06-28 12:00:00
63,优,330182,137,29.4769,优,--,42,9,55,优,#00E400,#00E400,7,建德监测大楼,#00E400,43,优,优,优,330100,#00E400,119.2711,#00E400,24,优,0.6,优,#00E400,#00E400,330182T_2,优,#00E400,杭州市,#00E400,优,38,27,#00E400,63,2026-06-28 12:00:00
64,优,330681,137,29.726389,优,--,44,3,58,优,#00E400,#00E400,5,青少年宫,#00E400,43,优,优,优,330600,#00E400,120.199722,#00E400,19,优,0.5,优,#00E400,#00E400,330681002,优,#00E400,绍兴市,#00E400,优,32,31,#00E400,63,2026-06-28 12:00:00
65,优,330723,133,28.896108,优,--,40,19,72,优,#00E400,#00E400,9,武义县政府,#00E400,43,优,优,优,330700,#00E400,119.811352,#00E400,28,优,0.6,优,#00E400,#00E400,330723001,优,#00E400,金华市,#00E400,优,43,25,#00E400,63,2026-06-28 12:00:00
66,优,330521,136,30.548493,优,--,57,2,77,优,#00E400,#00E400,7,春晖小学,#00E400,43,优,优,良,330500,#00E400,119.9505,#00E400,10,优,0.4,优,#00E400,#FFFF00,330521003,良,#00E400,湖州市,#00E400,优,16,38,#FFFF00,63,2026-06-28 12:00:00
67,优,330483,138,30.6488,优,--,41,9,80,优,#00E400,#00E400,5,茅盾小学,#00E400,44,优,优,优,330400,#00E400,120.5498,#00E400,23,优,0.4,优,#00E400,#00E400,330483001,优,#00E400,嘉兴市,#00E400,优,35,29,#00E400,68,2026-06-28 12:00:00
68,优,330523,138,30.5974,优,--,49,7,84,优,#00E400,#00E400,5,安吉城东,#00E400,44,优,优,优,330500,#00E400,119.6953,#00E400,16,优,0.3,优,#00E400,#FFFF00,330523002,良,#00E400,湖州市,#00E400,优,21,40,#00E400,68,2026-06-28 12:00:00
69,优,330481,141,30.5137,优,--,42,9,82,优,#00E400,#00E400,11,硖石街道,#00E400,45,优,优,优,330400,#00E400,120.7082,#00E400,21,优,0.5,优,#00E400,#00E400,330481002,优,#00E400,嘉兴市,#00E400,优,35,27,#00E400,70,2026-06-28 12:00:00
70,优,330421,141,30.836,优,--,42,5,96,优,#00E400,#00E400,7,嘉善监测大楼,#00E400,45,优,优,优,330400,#00E400,120.9226,#00E400,14,优,0.5,优,#00E400,#00E400,330421001,优,#00E400,嘉兴市,#00E400,优,18,29,#00E400,70,2026-06-28 12:00:00
71,优,330726,142,29.465746,优,--,38,11,65,优,#00E400,#00E400,6,浦江实验中学,#00E400,45,优,优,优,330700,#00E400,119.875227,#00E400,28,优,0.6,优,#00E400,#00E400,330726001,优,#00E400,金华市,#00E400,优,39,27,#00E400,70,2026-06-28 12:00:00
72,优,330726,143,29.439787,优,--,41,6,56,优,#00E400,#00E400,5,浦江中学,#00E400,45,优,优,优,330700,#00E400,119.924638,#00E400,26,优,0.5,优,#00E400,#00E400,330726002,优,#00E400,金华市,#00E400,优,39,26,#00E400,70,2026-06-28 12:00:00
73,优,330781,144,29.216166,优,--,40,12,60,优,#00E400,#00E400,7,兰溪监测站,#00E400,45,优,优,优,330700,#00E400,119.459992,#00E400,18,优,0.7,优,#00E400,#00E400,330781001,优,#00E400,金华市,#00E400,优,28,27,#00E400,70,2026-06-28 12:00:00
74,优,330822,95,28.9012,优,--,45,12,62,优,#00E400,#00E400,5,图书馆大楼,#00E400,45,优,优,优,330800,#00E400,118.5062,#00E400,25,优,0.5,优,#00E400,#00E400,330822002,优,#00E400,衢州市,#00E400,优,45,27,#00E400,70,2026-06-28 12:00:00
75,优,330110,144,30.2635,优,--,43,9,83,优,#00E400,#00E400,7,海辰小学,#00E400,45,优,优,优,330100,#00E400,119.9842,#00E400,13,优,0.3,优,#00E400,#00E400,2013301100001,优,#00E400,杭州市,#00E400,优,21,27,#00E400,70,2026-06-28 12:00:00
76,优,330281,145,30.0497,优,--,41,10,88,优,#00E400,#00E400,6,龙山公园,#00E400,46,优,优,优,330200,#00E400,121.1475,#00E400,19,优,0.5,优,#00E400,#00E400,330281001,优,#00E400,宁波市,#00E400,优,26,26,#00E400,77,2026-06-28 12:00:00
77,优,330324,88,28.158269,优,--,41,19,68,优,#00E400,#00E400,6,上塘,#00E400,46,优,优,优,330300,#00E400,120.694244,#00E400,29,优,0.7,优,#00E400,#00E400,330324001,优,#00E400,温州市,#00E400,优,46,27,#00E400,77,2026-06-28 12:00:00
78,优,330482,145,30.7292,优,--,28,7,93,优,#00E400,#00E400,8,陆家桥村,#00E400,46,优,优,优,330400,#00E400,120.9953,#00E400,18,优,0.5,优,#00E400,#00E400,330482002,优,#00E400,嘉兴市,#00E400,优,21,23,#00E400,77,2026-06-28 12:00:00
79,优,331024,99,28.8589,优,--,31,11,69,优,#00E400,#00E400,8,仙居环监站,#00E400,46,优,优,优,331000,#00E400,120.7248,#00E400,28,优,0.7,优,#00E400,#00E400,331024001,优,#00E400,台州市,#00E400,优,46,18,#00E400,77,2026-06-28 12:00:00
80,优,330723,144,28.9178,优,--,42,22,72,优,#00E400,#00E400,8,武义北岭幼儿园,#00E400,46,优,优,优,330700,#00E400,119.8022,#00E400,30,优,0.7,优,#00E400,#00E400,330723003,优,#00E400,金华市,#00E400,优,46,27,#00E400,77,2026-06-28 12:00:00
81,优,330803,83,28.9844,优,--,51,15,39,优,#00E400,#00E400,7,衢州三中（市）,#00E400,47,优,优,良,330800,#00E400,118.9628,#00E400,30,优,0.6,优,#00E400,#00E400,330803704,优,#00E400,衢州市,#00E400,优,47,33,#FFFF00,82,2026-06-28 12:00:00
82,优,330281,148,30.0358,优,--,37,13,84,优,#00E400,#00E400,7,姚江小学,#00E400,47,优,优,优,330200,#00E400,121.1221,#00E400,22,优,0.5,优,#00E400,#00E400,330281002,优,#00E400,宁波市,#00E400,优,29,28,#00E400,82,2026-06-28 12:00:00
83,优,330382,114,28.0297,优,--,49,17,90,优,#00E400,#00E400,4,柳市,#00E400,47,优,优,优,330300,#00E400,120.891,#00E400,31,优,0.5,优,#00E400,#00E400,330382002,优,#00E400,温州市,#00E400,优,47,35,#00E400,82,2026-06-28 12:00:00
84,优,330481,148,30.5261,优,--,46,9,91,优,#00E400,#00E400,8,海宁监测大楼,#00E400,47,优,优,优,330400,#00E400,120.6739,#00E400,23,优,0.4,优,#00E400,#00E400,330481001,优,#00E400,嘉兴市,#00E400,优,33,28,#00E400,82,2026-06-28 12:00:00
85,良,330424,150,30.5299,优,--,35,8,103,优,#00E400,#00E400,6,海盐商贸学校,#FFFF00,47,优,优,优,330400,#00E400,120.9293,#00E400,24,优,0.5,优,#00E400,#00E400,330424002,优,#00E400,嘉兴市,#00E400,优,29,28,#00E400,82,2026-06-28 12:00:00
86,优,330825,117,29.0392,优,--,57,16,70,优,#00E400,#00E400,8,建设大楼,#00E400,47,优,优,良,330800,#00E400,119.1675,#00E400,31,优,0.5,优,#00E400,#FFFF00,330825001,良,#00E400,衢州市,#00E400,优,47,40,#FFFF00,82,2026-06-28 12:00:00
87,优,330226,133,29.2878,优,--,42,11,81,优,#00E400,#00E400,7,宁海城南站,#00E400,48,优,优,优,330200,#00E400,121.4201,#00E400,33,优,0.6,优,#00E400,#00E400,330226002,优,#00E400,宁波市,#00E400,优,43,29,#00E400,88,2026-06-28 12:00:00
88,优,330381,101,27.791645,优,--,36,30,53,优,#00E400,#00E400,7,花园桥,#00E400,48,优,优,优,330300,#00E400,120.62372,#00E400,33,优,0.6,优,#00E400,#00E400,330381001,优,#00E400,温州市,#00E400,优,45,25,#00E400,88,2026-06-28 12:00:00
89,优,330421,153,30.8307,优,--,33,4,93,优,#00E400,#00E400,8,气象观测台,#00E400,48,优,优,优,330400,#00E400,120.9356,#00E400,17,优,0.5,优,#00E400,#00E400,330421002,优,#00E400,嘉兴市,#00E400,优,21,19,#00E400,88,2026-06-28 12:00:00
90,优,330683,152,29.5901,优,--,40,6,87,优,#00E400,#00E400,5,马寅初初中,#00E400,48,优,优,优,330600,#00E400,120.8249,#00E400,13,优,0.5,优,#00E400,#00E400,330683001,优,#00E400,绍兴市,#00E400,优,16,26,#00E400,88,2026-06-28 12:00:00
91,优,331082,102,28.873,优,--,35,23,64,优,#00E400,#00E400,7,临海环保大楼,#00E400,48,优,优,优,331000,#00E400,121.1769,#00E400,33,优,0.6,优,#00E400,#00E400,331082001,优,#00E400,台州市,#00E400,优,47,25,#00E400,88,2026-06-28 12:00:00
92,良,330424,148,30.5042,优,--,40,5,105,优,#00E400,#00E400,6,高级中学,#FFFF00,49,优,优,优,330400,#00E400,120.9413,#00E400,34,优,0.6,优,#00E400,#00E400,330424001,优,#00E400,嘉兴市,#00E400,优,49,29,#00E400,93,2026-06-28 12:00:00
93,优,330523,155,30.6422,优,--,60,6,90,优,#00E400,#00E400,8,安吉实验小学,#00E400,49,优,优,良,330500,#00E400,119.6768,#00E400,18,优,0.4,优,#00E400,#FFFF00,330523001,良,#00E400,湖州市,#00E400,优,26,45,#FFFF00,93,2026-06-28 12:00:00
94,优,330881,101,28.7465,优,--,50,16,56,优,#00E400,#00E400,5,江山环保大楼,#00E400,49,优,优,优,330800,#00E400,118.6301,#00E400,18,优,0.8,优,#00E400,#00E400,330881001,优,#00E400,衢州市,#00E400,优,49,32,#00E400,93,2026-06-28 12:00:00
95,优,331082,97,28.84326,优,--,42,21,60,优,#00E400,#00E400,4,巾山实验小学,#00E400,49,优,优,优,331000,#00E400,121.136,#00E400,34,优,0.5,优,#00E400,#00E400,331082002,优,#00E400,台州市,#00E400,优,44,31,#00E400,93,2026-06-28 12:00:00
96,优,331022,98,29.1028,优,--,40,17,79,优,#00E400,#00E400,5,心湖站,#00E400,49,优,优,优,331000,#00E400,121.3918,#00E400,34,优,0.6,优,#00E400,#00E400,331022002,优,#00E400,台州市,#00E400,优,45,28,#00E400,93,2026-06-28 12:00:00
97,良,330282,160,30.1636,优,--,49,13,108,优,#00E400,#00E400,5,慈溪环保大楼,#FFFF00,50,优,优,优,330200,#00E400,121.2677,#00E400,24,优,0.6,优,#00E400,#00E400,330282001,优,#00E400,宁波市,#00E400,优,33,24,#00E400,98,2026-06-28 12:00:00
98,优,330226,132,29.3125,优,--,44,8,89,优,#00E400,#00E400,6,宁海水利局,#00E400,50,优,优,优,330200,#00E400,121.4306,#00E400,35,优,0.5,优,#00E400,#00E400,330226001,优,#00E400,宁波市,#00E400,优,44,31,#00E400,98,2026-06-28 12:00:00
99,优,330381,114,27.782284,优,--,36,19,61,优,#00E400,#00E400,9,安阳新区,#00E400,50,优,优,优,330300,#00E400,120.650915,#00E400,35,优,0.6,优,#00E400,#00E400,330381002,优,#00E400,温州市,#00E400,优,41,28,#00E400,98,2026-06-28 12:00:00
100,优,330481,161,30.5524,优,O₃,48,10,94,良,#00E400,#00E400,7,胜利社区,#00E400,52,优,良,优,330400,#00E400,120.6713,#00E400,22,优,0.5,优,#00E400,#00E400,330481003,优,#FFFF00,嘉兴市,#FFFF00,优,32,25,#00E400,101,2026-06-28 12:00:00
101,优,330483,162,30.6355,优,O₃,38,7,77,良,#00E400,#00E400,9,文化中心,#00E400,53,优,良,优,330400,#00E400,120.5795,#00E400,29,优,0.7,优,#00E400,#00E400,330483003,优,#FFFF00,嘉兴市,#FFFF00,优,39,27,#00E400,102,2026-06-28 12:00:00
102,优,330881,98,28.7282,优,PM₂.₅,51,13,58,优,#00E400,#FFFF00,7,人民医院,#00E400,54,优,良,良,330800,#00E400,118.6227,#00E400,37,优,0.8,良,#00E400,#FFFF00,330881002,良,#FFFF00,衢州市,#00E400,优,48,44,#FFFF00,103,2026-06-28 12:00:00
103,良,330282,164,30.1786,优,O₃,45,8,116,良,#00E400,#00E400,5,慈溪实验小学,#FFFF00,55,优,良,优,330200,#00E400,121.2525,#00E400,26,优,0.6,优,#00E400,#00E400,330282002,优,#FFFF00,宁波市,#FFFF00,优,32,24,#00E400,104,2026-06-28 12:00:00
104,优,331081,99,28.37558,优,PM₂.₅,34,16,75,优,#00E400,#FFFF00,6,温岭环监站,#00E400,62,优,良,优,331000,#00E400,121.36579,#00E400,41,优,0.5,良,#00E400,#00E400,331081001,优,#FFFF00,台州市,#00E400,优,40,25,#00E400,105,2026-06-28 12:00:00
105,优,330327,105,27.503889,优,PM₁₀,36,14,65,优,#FFFF00,#FFFF00,10,灵溪,#00E400,63,优,良,优,330300,#00E400,120.395278,#00E400,37,良,0.5,良,#00E400,#00E400,330327001,优,#FFFF00,温州市,#00E400,优,68,23,#00E400,106,2026-06-28 12:00:00
106,优,330825,116,29.0464,优,PM₁₀,75,18,55,优,#FFFF00,#00E400,8,龙游二高,#00E400,63,优,良,良,330800,#00E400,119.204,#00E400,17,良,0.5,优,#00E400,#00E400,330825002,优,#FFFF00,衢州市,#00E400,优,67,35,#FFFF00,106,2026-06-28 12:00:00
107,优,330482,172,30.6937,优,O₃,31,8,100,良,#00E400,#00E400,10,平湖幼儿园,#00E400,65,优,良,优,330400,#00E400,121.0259,#00E400,22,优,0.5,优,#00E400,#00E400,330482001,优,#FFFF00,嘉兴市,#FFFF00,优,26,21,#00E400,108,2026-06-28 12:00:00
108,优,330383,106,27.5812,优,PM₂.₅,45,21,76,优,#FFFF00,#FFFF00,9,龙港,#00E400,68,优,良,优,330300,#00E400,120.5489,#00E400,44,良,0.5,良,#00E400,#00E400,330327002,优,#FFFF00,温州市,#00E400,优,60,32,#00E400,109,2026-06-28 12:00:00
109,优,330383,119,27.5617,优,PM₂.₅,44,24,87,优,#FFFF00,#FFFF00,6,龙港实验中学,#00E400,68,优,良,优,330300,#00E400,120.5355,#00E400,44,良,0.6,良,#00E400,#00E400,330303101,优,#FFFF00,温州市,#00E400,优,58,31,#00E400,109,2026-06-28 12:00:00
110,优,330483,174,30.7369,优,O₃,41,8,96,良,#00E400,#00E400,5,植材小学,#00E400,68,优,良,优,330400,#00E400,120.4902,#00E400,20,优,0.6,优,#00E400,#00E400,330483509,优,#FFFF00,嘉兴市,#FFFF00,优,29,27,#00E400,109,2026-06-28 12:00:00
111,优,330327,113,27.522222,优,PM₂.₅,41,12,78,优,#FFFF00,#FFFF00,9,苍南中学,#00E400,76,优,良,优,330300,#00E400,120.416111,#00E400,48,良,0.6,良,#00E400,#00E400,330327004,优,#FFFF00,温州市,#00E400,优,74,25,#00E400,112,2026-06-28 12:00:00
112,优,330522,197,31.0263,优,O₃,49,11,94,良,#FFFF00,#FFFF00,7,龙山新区,#00E400,97,优,良,优,330500,#00E400,119.9046,#00E400,44,良,0.6,良,#00E400,#00E400,330522002,优,#FFFF00,湖州市,#FFFF00,优,58,33,#00E400,113,2026-06-28 12:00:00
113,优,330522,203,31.0143,优,O₃,49,19,99,轻度污染,#FFFF00,#FFFF00,4,职教中心,#00E400,102,优,轻度污染,优,330500,#00E400,119.8935,#00E400,43,良,0.6,良,#00E400,#00E400,330522001,优,#FF7E00,湖州市,#FF7E00,优,55,34,#00E400,114,2026-06-28 12:00:00
114,优,331083,119,28.12715,优,--,34,8,95,优,#00E400,#00E400,--,玉环环监站,#00E400,--,优,--,优,331000,--,121.2339,#00E400,23,优,0.9,优,#00E400,#00E400,331021001,优,--,台州市,#00E400,--,30,28,#00E400,115,2026-06-28 12:00:00
115,--,331024,--,28.7403,优,--,25,--,--,--,#00E400,#00E400,--,新生中学,--,--,--,--,优,331000,--,120.4728,--,17,优,0.5,优,#00E400,#00E400,331024002,优,--,台州市,--,--,24,17,#00E400,115,2026-06-28 12:00:00
116,优,331125,83,28.1062,优,--,31,6,58,优,--,#00E400,7,云和三中,#00E400,--,优,--,优,331100,#00E400,119.5728,#00E400,21,--,0.5,优,#00E400,#00E400,331125002,优,--,丽水市,#00E400,优,--,17,#00E400,115,2026-06-28 12:00:00
117,优,330782,139,29.3686,优,--,51,18,70,优,#00E400,#00E400,--,第五中学,#00E400,--,优,--,良,330700,--,120.1345,#00E400,15,优,0.6,优,#00E400,#00E400,330782003,优,--,金华市,#00E400,--,29,24,#FFFF00,115,2026-06-28 12:00:00
