,O3H8_level,regioncode,O3,latitude,CO_level,SYWRW,PM10H24,NO2,O3H8,O3_level,PM10_color,PM25_color,SO2,sitename,O3H8_color,AQI,NO2_level,AQI_level,PM10H24_level,districtcode,SO2_color,longitude,NO2_color,PM25,PM10_level,CO,PM25_level,CO_color,PM25H24_color,sitecode,PM25H24_level,AQI_color,districtname,O3_color,SO2_level,PM10,PM25H24,PM10H24_color,sort,time
0,优,330522,35,31.0263,优,--,19,22,38,优,#00E400,#00E400,4,龙山新区,#00E400,11,优,优,优,330500,#00E400,119.9046,#00E400,3,优,0.3,优,#00E400,#00E400,330522002,优,#00E400,湖州市,#00E400,优,6,14,#00E400,1,2026-05-26 10:00:00
1,优,330127,25,29.5995,优,--,20,5,13,优,#00E400,#00E400,9,淳安环保大楼,#00E400,13,优,优,优,330100,#00E400,119.0481,#00E400,9,优,0.8,优,#00E400,#00E400,330127001,优,#00E400,杭州市,#00E400,优,13,9,#00E400,2,2026-05-26 10:00:00
2,优,330783,50,29.27739,优,--,23,9,17,优,#00E400,#00E400,5,东阳环保大楼,#00E400,16,优,优,优,330700,#00E400,120.23692,#00E400,8,优,0.6,优,#00E400,#00E400,330783002,优,#00E400,金华市,#00E400,优,16,13,#00E400,3,2026-05-26 10:00:00
3,优,331127,55,27.9772,优,--,20,3,13,优,#00E400,#00E400,2,景宁县政府,#00E400,18,优,优,优,331100,#00E400,119.6311,#00E400,10,优,0.4,优,#00E400,#00E400,331127002,优,#00E400,丽水市,#00E400,优,17,12,#00E400,4,2026-05-26 10:00:00
4,优,330110,55,30.2635,优,--,25,10,35,优,#00E400,#00E400,8,海辰小学,#00E400,18,优,优,优,330100,#00E400,119.9842,#00E400,12,优,0.8,优,#00E400,#00E400,2013301100001,优,#00E400,杭州市,#00E400,优,18,13,#00E400,4,2026-05-26 10:00:00
5,优,330523,20,30.6422,优,--,28,19,9,优,#00E400,#00E400,7,安吉实验小学,#00E400,19,优,优,优,330500,#00E400,119.6768,#00E400,13,优,0.6,优,#00E400,#00E400,330523001,优,#00E400,湖州市,#00E400,优,18,16,#00E400,6,2026-05-26 10:00:00
6,优,331127,45,28.002222,优,--,27,4,11,优,#00E400,#00E400,6,红星小学,#00E400,20,优,优,优,331100,#00E400,119.636389,#00E400,13,优,0.4,优,#00E400,#00E400,331127003,优,#00E400,丽水市,#00E400,优,20,15,#00E400,7,2026-05-26 10:00:00
7,优,330421,36,30.8307,优,--,38,25,28,优,#00E400,#00E400,7,气象观测台,#00E400,20,优,优,优,330400,#00E400,120.9356,#00E400,12,优,0.7,优,#00E400,#00E400,330421002,优,#00E400,嘉兴市,#00E400,优,20,27,#00E400,7,2026-05-26 10:00:00
8,优,331123,38,28.5991,优,--,21,9,9,优,#00E400,#00E400,5,遂昌民政局,#00E400,20,优,优,优,331100,#00E400,119.2622,#00E400,14,优,0.6,优,#00E400,#00E400,331123001,优,#00E400,丽水市,#00E400,优,20,11,#00E400,7,2026-05-26 10:00:00
9,优,331181,63,28.076,优,--,24,6,20,优,#00E400,#00E400,10,粮食大楼,#00E400,20,优,优,优,331100,#00E400,119.1217,#00E400,12,优,0.6,优,#00E400,#00E400,331181002,优,#00E400,丽水市,#00E400,优,19,12,#00E400,7,2026-05-26 10:00:00
10,优,330383,61,27.5617,优,--,44,17,34,优,#00E400,#00E400,7,龙港实验中学,#00E400,20,优,优,优,330300,#00E400,120.5355,#00E400,14,优,0.6,优,#00E400,#00E400,330303101,优,#00E400,温州市,#00E400,优,20,32,#00E400,7,2026-05-26 10:00:00
11,优,330329,67,27.5438,优,--,19,6,43,优,#00E400,#00E400,7,泰顺实验中学,#00E400,21,优,优,优,330300,#00E400,119.716111,#00E400,10,优,0.3,优,#00E400,#00E400,330329002,优,#00E400,温州市,#00E400,优,14,14,#00E400,12,2026-05-26 10:00:00
12,优,330726,37,29.465746,优,--,21,4,14,优,#00E400,#00E400,5,浦江实验中学,#00E400,21,优,优,优,330700,#00E400,119.875227,#00E400,13,优,0.8,优,#00E400,#00E400,330726001,优,#00E400,金华市,#00E400,优,21,13,#00E400,12,2026-05-26 10:00:00
13,优,331125,56,28.1173,优,--,23,8,12,优,#00E400,#00E400,7,云和监测楼,#00E400,21,优,优,优,331100,#00E400,119.5626,#00E400,13,优,0.5,优,#00E400,#00E400,331125001,优,#00E400,丽水市,#00E400,优,21,14,#00E400,12,2026-05-26 10:00:00
14,优,330122,62,29.8058,优,--,12,7,34,优,#00E400,#00E400,4,桐庐江北,#00E400,23,优,优,优,330100,#00E400,119.669,#00E400,16,优,0.7,优,#00E400,#00E400,330122002,优,#00E400,杭州市,#00E400,优,13,11,#00E400,15,2026-05-26 10:00:00
15,优,330329,72,27.557,优,--,21,8,58,优,#00E400,#00E400,6,罗阳,#00E400,23,优,优,优,330300,#00E400,119.7084,#00E400,15,优,0.6,优,#00E400,#00E400,330329001,优,#00E400,温州市,#00E400,优,21,14,#00E400,15,2026-05-26 10:00:00
16,优,330523,26,30.5974,优,--,18,18,19,优,#00E400,#00E400,5,安吉城东,#00E400,23,优,优,优,330500,#00E400,119.6953,#00E400,14,优,0.5,优,#00E400,#00E400,330523002,优,#00E400,湖州市,#00E400,优,23,11,#00E400,15,2026-05-26 10:00:00
17,优,330727,54,29.039869,优,--,26,7,12,优,#00E400,#00E400,7,南园初中,#00E400,23,优,优,优,330700,#00E400,120.440622,#00E400,13,优,0.5,优,#00E400,#00E400,330727003,优,#00E400,金华市,#00E400,优,23,13,#00E400,15,2026-05-26 10:00:00
18,优,330483,39,30.7369,优,--,36,23,46,优,#00E400,#00E400,7,植材小学,#00E400,23,优,优,优,330400,#00E400,120.4902,#00E400,16,优,0.8,优,#00E400,#00E400,330483509,优,#00E400,嘉兴市,#00E400,优,22,25,#00E400,15,2026-05-26 10:00:00
19,优,330783,47,29.30093,优,--,23,15,12,优,#00E400,#00E400,5,广厦学院,#00E400,24,优,优,优,330700,#00E400,120.24157,#00E400,12,优,0.7,优,#00E400,#00E400,330783001,优,#00E400,金华市,#00E400,优,24,11,#00E400,20,2026-05-26 10:00:00
20,优,330521,32,30.5231,优,--,17,17,22,优,#00E400,#00E400,7,地信科创园,#00E400,25,优,优,优,330500,#00E400,119.9781,#00E400,17,优,0.6,优,#00E400,#00E400,330521001,优,#00E400,湖州市,#00E400,优,21,8,#00E400,21,2026-05-26 10:00:00
21,优,331122,71,28.6574,优,--,25,24,50,优,#00E400,#00E400,7,缙云中学,#00E400,25,优,优,优,331100,#00E400,120.0696,#00E400,16,优,0.6,优,#00E400,#00E400,331122001,优,#00E400,丽水市,#00E400,优,25,16,#00E400,21,2026-05-26 10:00:00
22,优,331181,54,28.08007,优,--,39,5,14,优,#00E400,#00E400,8,龙泉环保大楼,#00E400,25,优,优,优,331100,#00E400,119.1328,#00E400,13,优,0.4,优,#00E400,#00E400,331181001,优,#00E400,丽水市,#00E400,优,25,16,#00E400,21,2026-05-26 10:00:00
23,优,330482,42,30.6937,优,--,38,20,30,优,#00E400,#00E400,7,平湖幼儿园,#00E400,26,优,优,优,330400,#00E400,121.0259,#00E400,18,优,0.6,优,#00E400,#00E400,330482001,优,#00E400,嘉兴市,#00E400,优,24,30,#00E400,24,2026-05-26 10:00:00
24,优,330482,45,30.7292,优,--,36,23,36,优,#00E400,#00E400,7,陆家桥村,#00E400,26,优,优,优,330400,#00E400,120.9953,#00E400,18,优,0.9,优,#00E400,#00E400,330482002,优,#00E400,嘉兴市,#00E400,优,18,30,#00E400,24,2026-05-26 10:00:00
25,优,330683,32,29.5663,优,--,17,31,24,优,#00E400,#00E400,7,丽湖小区,#00E400,26,优,优,优,330600,#00E400,120.8173,#00E400,17,优,0.7,优,#00E400,#00E400,330683002,优,#00E400,绍兴市,#00E400,优,26,13,#00E400,24,2026-05-26 10:00:00
26,优,330822,70,28.901,优,--,25,10,32,优,#00E400,#00E400,7,常山环保大楼,#00E400,27,优,优,优,330800,#00E400,118.5196,#00E400,9,优,0.5,优,#00E400,#00E400,330822001,优,#00E400,衢州市,#00E400,优,27,11,#00E400,27,2026-05-26 10:00:00
27,优,330328,46,27.804722,优,--,32,7,14,优,#00E400,#00E400,8,文成中学,#00E400,28,优,优,优,330300,#00E400,120.077222,#00E400,19,优,0.3,优,#00E400,#00E400,330328002,优,#00E400,温州市,#00E400,优,26,19,#00E400,28,2026-05-26 10:00:00
28,优,330683,27,29.5901,优,--,18,30,15,优,#00E400,#00E400,8,马寅初初中,#00E400,28,优,优,优,330600,#00E400,120.8249,#00E400,18,优,0.7,优,#00E400,#00E400,330683001,优,#00E400,绍兴市,#00E400,优,28,12,#00E400,28,2026-05-26 10:00:00
29,优,330122,48,29.7955,优,--,21,20,30,优,#00E400,#00E400,6,桐庐江南,#00E400,29,优,优,优,330100,#00E400,119.6874,#00E400,18,优,0.6,优,#00E400,#00E400,330122001,优,#00E400,杭州市,#00E400,优,29,12,#00E400,30,2026-05-26 10:00:00
30,优,330824,8,29.1478,优,--,23,10,3,优,#00E400,#00E400,8,开化监测大楼,#00E400,29,优,优,优,330800,#00E400,118.4108,#00E400,17,优,0.5,优,#00E400,#00E400,330824002,优,#00E400,衢州市,#00E400,优,29,12,#00E400,30,2026-05-26 10:00:00
31,优,330213,23,29.693,优,--,20,19,8,优,#00E400,#00E400,4,溪口政府大楼,#00E400,30,优,优,优,330200,#00E400,121.2774,#00E400,21,优,0.4,优,#00E400,#00E400,330283T_1,优,#00E400,宁波市,#00E400,优,29,13,#00E400,32,2026-05-26 10:00:00
32,优,330383,63,27.5812,优,--,49,22,34,优,#00E400,#00E400,8,龙港,#00E400,30,优,优,优,330300,#00E400,120.5489,#00E400,11,优,0.6,优,#00E400,#00E400,330327002,优,#00E400,温州市,#00E400,优,30,30,#00E400,32,2026-05-26 10:00:00
33,优,330521,22,30.548493,优,--,13,29,12,优,#00E400,#00E400,7,春晖小学,#00E400,30,优,优,优,330500,#00E400,119.9505,#00E400,19,优,0.6,优,#00E400,#00E400,330521003,优,#00E400,湖州市,#00E400,优,30,7,#00E400,32,2026-05-26 10:00:00
34,优,330326,46,27.6593,优,--,43,17,16,优,#00E400,#00E400,8,平阳监测站,#00E400,31,优,优,优,330300,#00E400,120.5705,#00E400,18,优,0.7,优,#00E400,#00E400,330326001,优,#00E400,温州市,#00E400,优,31,26,#00E400,35,2026-05-26 10:00:00
35,优,331022,40,29.11779,优,--,26,21,32,优,#00E400,#00E400,5,三门环监楼,#00E400,31,优,优,优,331000,#00E400,121.382189,#00E400,19,优,0.7,优,#00E400,#00E400,331022001,优,#00E400,台州市,#00E400,优,31,16,#00E400,35,2026-05-26 10:00:00
36,优,330681,30,29.6818,优,--,21,22,13,优,#00E400,#00E400,4,杨树畈,#00E400,32,优,优,优,330600,#00E400,120.2359,#00E400,22,优,0.7,优,#00E400,#00E400,330681001,优,#00E400,绍兴市,#00E400,优,30,15,#00E400,37,2026-05-26 10:00:00
37,优,330824,14,29.1343,优,--,22,10,8,优,#00E400,#00E400,6,开化气象局,#00E400,32,优,优,优,330800,#00E400,118.402,#00E400,14,优,0.4,优,#00E400,#00E400,330824001,优,#00E400,衢州市,#00E400,优,32,6,#00E400,37,2026-05-26 10:00:00
38,优,331024,27,28.7403,优,--,26,9,18,优,#00E400,#00E400,6,新生中学,#00E400,32,优,优,优,331000,#00E400,120.4728,#00E400,19,优,0.5,优,#00E400,#00E400,331024002,优,#00E400,台州市,#00E400,优,32,14,#00E400,37,2026-05-26 10:00:00
39,优,331123,22,28.5839,优,--,25,14,7,优,#00E400,#00E400,6,遂昌中学,#00E400,32,优,优,优,331100,#00E400,119.2656,#00E400,12,优,0.7,优,#00E400,#00E400,331123002,优,#00E400,丽水市,#00E400,优,32,12,#00E400,37,2026-05-26 10:00:00
40,优,330822,65,28.9012,优,--,29,8,34,优,#00E400,#00E400,7,图书馆大楼,#00E400,33,优,优,优,330800,#00E400,118.5062,#00E400,12,优,0.3,优,#00E400,#00E400,330822002,优,#00E400,衢州市,#00E400,优,33,13,#00E400,41,2026-05-26 10:00:00
41,优,330213,38,29.6774,优,--,24,17,42,优,#00E400,#00E400,7,大桥市场,#00E400,34,优,优,优,330200,#00E400,121.4237,#00E400,19,优,0.7,优,#00E400,#00E400,330213001,优,#00E400,宁波市,#00E400,优,34,14,#00E400,42,2026-05-26 10:00:00
42,优,330326,65,27.6653,优,--,44,16,25,优,#00E400,#00E400,6,平阳县政府,#00E400,34,优,优,优,330300,#00E400,120.5611,#00E400,22,优,0.7,优,#00E400,#00E400,330326002,优,#00E400,温州市,#00E400,优,34,31,#00E400,42,2026-05-26 10:00:00
43,优,330881,64,28.7282,优,--,28,18,31,优,#00E400,#00E400,6,人民医院,#00E400,34,优,优,优,330800,#00E400,118.6227,#00E400,22,优,0.6,优,#00E400,#00E400,330881002,优,#00E400,衢州市,#00E400,优,34,17,#00E400,42,2026-05-26 10:00:00
44,优,331124,60,28.4505,优,--,30,30,30,优,#00E400,#00E400,5,松阳监测楼,#00E400,34,优,优,优,331100,#00E400,119.4799,#00E400,19,优,0.6,优,#00E400,#00E400,331124001,优,#00E400,丽水市,#00E400,优,34,17,#00E400,42,2026-05-26 10:00:00
45,优,330803,35,28.9844,优,--,29,12,7,优,#00E400,#00E400,4,衢州三中（市）,#00E400,35,优,优,优,330800,#00E400,118.9628,#00E400,20,优,0.6,优,#00E400,#00E400,330803704,优,#00E400,衢州市,#00E400,优,35,16,#00E400,46,2026-05-26 10:00:00
46,优,330225,56,29.4767,优,--,41,14,54,优,#00E400,#00E400,8,文峰小学,#00E400,35,优,优,优,330200,#00E400,121.8864,#00E400,23,优,0.7,优,#00E400,#00E400,330225001,优,#00E400,宁波市,#00E400,优,35,31,#00E400,46,2026-05-26 10:00:00
47,优,330328,41,27.7838,优,--,39,13,9,优,#00E400,#00E400,6,大峃,#00E400,35,优,优,优,330300,#00E400,120.085,#00E400,21,优,0.4,优,#00E400,#00E400,330328001,优,#00E400,温州市,#00E400,优,35,21,#00E400,46,2026-05-26 10:00:00
48,优,330483,31,30.6488,优,--,33,46,42,优,#00E400,#00E400,3,茅盾小学,#00E400,35,优,优,优,330400,#00E400,120.5498,#00E400,24,优,0.7,优,#00E400,#00E400,330483001,优,#00E400,嘉兴市,#00E400,优,31,26,#00E400,46,2026-05-26 10:00:00
49,优,330825,67,29.0392,优,--,30,18,38,优,#00E400,#00E400,8,建设大楼,#00E400,35,优,优,优,330800,#00E400,119.1675,#00E400,19,优,0.6,优,#00E400,#00E400,330825001,优,#00E400,衢州市,#00E400,优,35,20,#00E400,46,2026-05-26 10:00:00
50,优,331126,11,27.6211,优,--,25,14,4,优,#00E400,#00E400,5,庆元气象局,#00E400,35,优,优,优,331100,#00E400,119.0788,#00E400,22,优,0.8,优,#00E400,#00E400,331126002,优,#00E400,丽水市,#00E400,优,35,14,#00E400,46,2026-05-26 10:00:00
51,优,330624,43,29.5036,优,--,20,16,11,优,#00E400,#00E400,4,钟楼站,#00E400,36,优,优,优,330600,#00E400,120.8938,#00E400,21,优,0.6,优,#00E400,#00E400,330624001,优,#00E400,绍兴市,#00E400,优,36,13,#00E400,52,2026-05-26 10:00:00
52,优,330624,39,29.4938,优,--,22,18,13,优,#00E400,#00E400,4,城东站,#00E400,36,优,优,优,330600,#00E400,120.9109,#00E400,21,优,0.6,优,#00E400,#00E400,330624002,优,#00E400,绍兴市,#00E400,优,36,13,#00E400,52,2026-05-26 10:00:00
53,优,330922,31,30.7269,优,--,22,22,32,优,#00E400,#00E400,8,嵊泗菜园,#00E400,36,优,优,优,330900,#00E400,122.4464,#00E400,25,优,0.5,优,#00E400,#00E400,330922001,优,#00E400,舟山市,#00E400,优,29,19,#00E400,52,2026-05-26 10:00:00
54,优,331022,23,29.1028,优,--,24,13,10,优,#00E400,#00E400,6,心湖站,#00E400,36,优,优,优,331000,#00E400,121.3918,#00E400,20,优,0.6,优,#00E400,#00E400,331022002,优,#00E400,台州市,#00E400,优,36,15,#00E400,52,2026-05-26 10:00:00
55,优,331121,50,28.1341,优,--,51,9,21,优,#00E400,#00E400,5,塔山小学,#00E400,36,优,优,良,331100,#00E400,120.2936,#00E400,22,优,0.5,优,#00E400,#00E400,331121001,优,#00E400,丽水市,#00E400,优,36,32,#FFFF00,52,2026-05-26 10:00:00
56,优,331023,14,29.1504,优,--,21,16,5,优,#00E400,#00E400,5,育青中学,#00E400,37,优,优,优,331000,#00E400,121.0091,#00E400,23,优,0.7,优,#00E400,#00E400,331023001,优,#00E400,台州市,#00E400,优,37,12,#00E400,57,2026-05-26 10:00:00
57,优,330782,41,29.305096,优,--,28,19,9,优,#00E400,#00E400,5,江东,#00E400,38,优,优,优,330700,#00E400,120.090442,#00E400,16,优,0.9,优,#00E400,#00E400,330782002,优,#00E400,金华市,#00E400,优,38,15,#00E400,58,2026-05-26 10:00:00
58,优,330825,43,29.0464,优,--,15,14,11,优,#00E400,#00E400,4,龙游二高,#00E400,38,优,优,优,330800,#00E400,119.204,#00E400,26,优,0.6,优,#00E400,#00E400,330825002,优,#00E400,衢州市,#00E400,优,25,17,#00E400,58,2026-05-26 10:00:00
59,优,331122,56,28.6628,优,--,28,29,39,优,#00E400,#00E400,7,信访大楼,#00E400,38,优,优,优,331100,#00E400,120.0856,#00E400,19,优,0.6,优,#00E400,#00E400,331122002,优,#00E400,丽水市,#00E400,优,38,16,#00E400,58,2026-05-26 10:00:00
60,优,330681,43,29.7257,优,--,19,25,24,优,#00E400,#00E400,6,城新小学,#00E400,39,优,优,优,330600,#00E400,120.272,#00E400,25,优,0.4,优,#00E400,#00E400,330681505,优,#00E400,绍兴市,#00E400,优,39,11,#00E400,61,2026-05-26 10:00:00
61,优,330226,42,29.2878,优,--,26,12,26,优,#00E400,#00E400,6,宁海城南站,#00E400,39,优,优,优,330200,#00E400,121.4201,#00E400,24,优,0.4,优,#00E400,#00E400,330226002,优,#00E400,宁波市,#00E400,优,39,15,#00E400,61,2026-05-26 10:00:00
62,优,330681,29,29.726389,优,--,27,21,12,优,#00E400,#00E400,6,青少年宫,#00E400,39,优,优,优,330600,#00E400,120.199722,#00E400,27,优,0.6,优,#00E400,#00E400,330681002,优,#00E400,绍兴市,#00E400,优,31,16,#00E400,61,2026-05-26 10:00:00
63,优,331082,33,28.873,优,--,24,24,17,优,#00E400,#00E400,5,临海环保大楼,#00E400,39,优,优,优,331000,#00E400,121.1769,#00E400,21,优,1.1,优,#00E400,#00E400,331082001,优,#00E400,台州市,#00E400,优,39,13,#00E400,61,2026-05-26 10:00:00
64,优,330782,46,29.3686,优,--,27,29,12,优,#00E400,#00E400,8,第五中学,#00E400,39,优,优,优,330700,#00E400,120.1345,#00E400,19,优,0.8,优,#00E400,#00E400,330782003,优,#00E400,金华市,#00E400,优,39,18,#00E400,61,2026-05-26 10:00:00
65,优,330305,47,27.8342,优,--,33,8,37,优,#00E400,#00E400,7,洞头气象局,#00E400,40,优,优,优,330300,#00E400,121.1502,#00E400,28,优,0.5,优,#00E400,#00E400,330305001,优,#00E400,温州市,#00E400,优,39,21,#00E400,66,2026-05-26 10:00:00
66,优,330881,54,28.7465,优,--,30,11,15,优,#00E400,#00E400,1,江山环保大楼,#00E400,40,优,优,优,330800,#00E400,118.6301,#00E400,23,优,0.6,优,#00E400,#00E400,330881001,优,#00E400,衢州市,#00E400,优,40,14,#00E400,66,2026-05-26 10:00:00
67,优,331024,37,28.8589,优,--,25,17,26,优,#00E400,#00E400,8,仙居环监站,#00E400,40,优,优,优,331000,#00E400,120.7248,#00E400,21,优,0.8,优,#00E400,#00E400,331024001,优,#00E400,台州市,#00E400,优,40,13,#00E400,66,2026-05-26 10:00:00
68,优,331124,61,28.4516,优,--,30,31,37,优,#00E400,#00E400,7,和平水厂,#00E400,40,优,优,优,331100,#00E400,119.4699,#00E400,20,优,0.5,优,#00E400,#00E400,331124002,优,#00E400,丽水市,#00E400,优,40,16,#00E400,66,2026-05-26 10:00:00
69,优,330182,46,29.4638,优,--,24,20,27,优,#00E400,#00E400,6,第二中学,#00E400,41,优,优,优,330100,#00E400,119.2821,#00E400,26,优,0.6,优,#00E400,#00E400,330182002,优,#00E400,杭州市,#00E400,优,41,12,#00E400,70,2026-05-26 10:00:00
70,优,331082,31,28.84326,优,--,26,20,15,优,#00E400,#00E400,7,巾山实验小学,#00E400,42,优,优,优,331000,#00E400,121.136,#00E400,25,优,0.7,优,#00E400,#00E400,331082002,优,#00E400,台州市,#00E400,优,42,15,#00E400,71,2026-05-26 10:00:00
71,优,330182,31,29.4769,优,--,25,15,13,优,#00E400,#00E400,6,建德监测大楼,#00E400,43,优,优,优,330100,#00E400,119.2711,#00E400,27,优,0.8,优,#00E400,#00E400,330182T_2,优,#00E400,杭州市,#00E400,优,43,13,#00E400,72,2026-05-26 10:00:00
72,优,330281,18,30.0497,优,--,32,35,22,优,#00E400,#00E400,5,龙山公园,#00E400,43,优,优,优,330200,#00E400,121.1475,#00E400,27,优,0.7,优,#00E400,#00E400,330281001,优,#00E400,宁波市,#00E400,优,43,20,#00E400,72,2026-05-26 10:00:00
73,优,330483,37,30.625,优,--,55,41,45,优,#00E400,#00E400,3,振东新六中站,#00E400,43,优,优,良,330400,#00E400,120.5613,#00E400,25,优,0.8,优,#00E400,#00E400,330483002,优,#00E400,嘉兴市,#00E400,优,43,28,#FFFF00,72,2026-05-26 10:00:00
74,优,330921,43,30.2517,优,--,42,30,45,优,#00E400,#00E400,8,岱山高亭,#00E400,43,优,优,优,330900,#00E400,122.1958,#00E400,30,优,0.8,优,#00E400,#00E400,330921002,优,#00E400,舟山市,#00E400,优,40,31,#00E400,72,2026-05-26 10:00:00
75,优,330282,41,30.1786,优,--,41,29,32,优,#00E400,#00E400,5,慈溪实验小学,#00E400,45,优,优,优,330200,#00E400,121.2525,#00E400,22,优,0.7,优,#00E400,#00E400,330282002,优,#00E400,宁波市,#00E400,优,45,24,#00E400,76,2026-05-26 10:00:00
76,优,330481,24,30.5524,优,--,50,31,27,优,#00E400,#00E400,6,胜利社区,#00E400,45,优,优,优,330400,#00E400,120.6713,#00E400,23,优,0.7,优,#00E400,#00E400,330481003,优,#00E400,嘉兴市,#00E400,优,45,27,#00E400,76,2026-05-26 10:00:00
77,优,330784,14,28.8854,优,--,26,28,5,优,#00E400,#00E400,5,永康一中,#00E400,48,优,优,优,330700,#00E400,120.0439,#00E400,26,优,0.9,优,#00E400,#00E400,330784001,优,#00E400,金华市,#00E400,优,48,16,#00E400,78,2026-05-26 10:00:00
78,优,330381,69,27.782284,优,--,64,18,24,优,#00E400,#00E400,9,安阳新区,#00E400,49,优,优,良,330300,#00E400,120.650915,#00E400,34,优,0.7,优,#00E400,#FFFF00,330381002,良,#00E400,温州市,#00E400,优,48,41,#FFFF00,79,2026-05-26 10:00:00
79,优,331121,36,28.1094,优,--,53,19,13,优,#00E400,#00E400,4,青田中学,#00E400,49,优,优,良,331100,#00E400,120.3161,#00E400,26,优,0.5,优,#00E400,#00E400,331121002,优,#00E400,丽水市,#00E400,优,49,31,#FFFF00,79,2026-05-26 10:00:00
80,优,331081,53,28.39136,优,--,38,18,37,优,#00E400,#00E400,4,之江高级中学,#00E400,50,优,优,优,331000,#00E400,121.37696,#00E400,32,优,1.3,优,#00E400,#00E400,331081002,优,#00E400,台州市,#00E400,优,50,26,#00E400,81,2026-05-26 10:00:00
81,优,330381,57,27.791645,优,PM₁₀,56,23,15,优,#FFFF00,#FFFF00,5,花园桥,#00E400,55,优,良,良,330300,#00E400,120.62372,#00E400,36,良,0.6,良,#00E400,#FFFF00,330381001,良,#FFFF00,温州市,#00E400,优,57,36,#FFFF00,82,2026-05-26 10:00:00
82,优,330781,27,29.216166,优,PM₁₀,31,25,12,优,#FFFF00,#00E400,6,兰溪监测站,#00E400,55,优,良,优,330700,#00E400,119.459992,#00E400,34,良,0.7,优,#00E400,#00E400,330781001,优,#FFFF00,金华市,#00E400,优,57,15,#00E400,82,2026-05-26 10:00:00
83,优,331083,51,28.2221,优,PM₁₀,39,28,39,优,#FFFF00,#00E400,8,楚门中心小学,#00E400,56,优,良,优,331000,#00E400,121.2846,#00E400,33,良,1.0,优,#00E400,#00E400,331021002,优,#FFFF00,台州市,#00E400,优,58,24,#00E400,84,2026-05-26 10:00:00
84,优,330481,13,30.5137,优,PM₂.₅,42,41,20,优,#00E400,#FFFF00,7,硖石街道,#00E400,60,优,良,优,330400,#00E400,120.7082,#00E400,40,优,0.8,良,#00E400,#00E400,330481002,优,#FFFF00,嘉兴市,#00E400,优,50,31,#00E400,85,2026-05-26 10:00:00
85,--,330784,8,28.90016,优,PM₁₀,35,29,--,优,#FFFF00,#00E400,7,西城供电所,--,60,优,良,优,330700,#00E400,120.01452,#00E400,33,良,1.0,优,#00E400,#00E400,330784002,优,#FFFF00,金华市,#00E400,优,63,19,#00E400,85,2026-05-26 10:00:00
86,优,330782,31,29.2637,优,PM₁₀,30,39,12,优,#FFFF00,#FFFF00,7,儿童公园,#00E400,60,优,良,优,330700,#00E400,120.0321,#00E400,36,良,0.7,良,#00E400,#00E400,330782004,优,#FFFF00,金华市,#00E400,优,63,19,#00E400,85,2026-05-26 10:00:00
87,优,330481,22,30.5261,优,PM₂.₅,47,50,31,优,#FFFF00,#FFFF00,5,海宁监测大楼,#00E400,62,优,良,优,330400,#00E400,120.6739,#00E400,41,良,0.5,良,#00E400,#00E400,330481001,优,#FFFF00,嘉兴市,#00E400,优,61,32,#00E400,88,2026-05-26 10:00:00
88,优,330723,20,28.896108,优,PM₂.₅,32,28,7,优,#FFFF00,#FFFF00,8,武义县政府,#00E400,64,优,良,优,330700,#00E400,119.811352,#00E400,42,良,1.0,良,#00E400,#00E400,330723001,优,#FFFF00,金华市,#00E400,优,65,21,#00E400,89,2026-05-26 10:00:00
89,优,330424,35,30.5299,优,PM₂.₅,29,60,35,优,#00E400,#FFFF00,3,海盐商贸学校,#00E400,68,优,良,优,330400,#00E400,120.9293,#00E400,44,优,0.7,良,#00E400,#00E400,330424002,优,#FFFF00,嘉兴市,#00E400,优,48,34,#00E400,90,2026-05-26 10:00:00
90,优,330324,48,28.158269,优,PM₁₀,54,26,14,优,#FFFF00,#FFFF00,8,上塘,#00E400,70,优,良,良,330300,#00E400,120.694244,#00E400,38,良,0.7,良,#00E400,#00E400,330324001,优,#FFFF00,温州市,#00E400,优,78,30,#FFFF00,91,2026-05-26 10:00:00
91,优,330424,35,30.5042,优,PM₂.₅,32,58,41,优,#FFFF00,#FFFF00,6,高级中学,#00E400,70,优,良,优,330400,#00E400,120.9413,#00E400,45,良,0.8,良,#00E400,#00E400,330424001,优,#FFFF00,嘉兴市,#00E400,优,61,27,#00E400,91,2026-05-26 10:00:00
92,优,330382,56,28.1209,优,PM₂.₅,41,31,23,优,#FFFF00,#FFFF00,5,乐成,#00E400,74,优,良,优,330300,#00E400,120.9659,#00E400,47,良,0.7,良,#00E400,#00E400,330382001,优,#FFFF00,温州市,#00E400,优,63,28,#00E400,93,2026-05-26 10:00:00
93,优,330382,62,28.0297,优,PM₁₀,47,38,39,优,#FFFF00,#FFFF00,5,柳市,#00E400,78,优,良,优,330300,#00E400,120.891,#00E400,44,良,0.8,良,#00E400,#00E400,330382002,优,#FFFF00,温州市,#00E400,优,89,29,#00E400,94,2026-05-26 10:00:00
94,优,330324,73,28.044335,优,PM₁₀,54,44,23,优,#FFFF00,#FFFF00,11,瓯北,#00E400,88,优,良,良,330300,#00E400,120.654963,#00E400,49,良,1.1,良,#00E400,#00E400,330324002,优,#FFFF00,温州市,#00E400,优,103,30,#FFFF00,95,2026-05-26 10:00:00
95,优,330127,33,29.605,优,--,15,6,20,优,#00E400,#00E400,--,老年活动中心,#00E400,--,优,--,优,330100,--,119.0372,#00E400,7,优,0.5,优,#00E400,#00E400,330127T_4,优,--,杭州市,#00E400,--,12,8,#00E400,96,2026-05-26 10:00:00
96,优,330213,--,29.6506,优,--,25,--,27,--,--,--,9,奉化教育局,#00E400,--,--,--,优,330200,#00E400,121.4042,--,--,--,0.5,--,#00E400,#00E400,330283005,优,--,宁波市,--,优,--,16,#00E400,96,2026-05-26 10:00:00
97,优,330281,19,30.0358,--,--,29,--,16,优,#00E400,#00E400,12,姚江小学,#00E400,--,--,--,优,330200,#00E400,121.1221,--,28,优,--,优,--,#00E400,330281002,优,--,宁波市,#00E400,优,37,19,#00E400,96,2026-05-26 10:00:00
98,优,330282,--,30.1636,优,--,42,30,32,--,#00E400,#00E400,--,慈溪环保大楼,#00E400,--,优,--,优,330200,--,121.2677,#00E400,19,优,0.8,优,#00E400,#00E400,330282001,优,--,宁波市,--,--,41,23,#00E400,96,2026-05-26 10:00:00
99,优,330226,45,29.3125,优,--,23,--,26,优,#00E400,#00E400,--,宁海水利局,#00E400,--,--,--,优,330200,--,121.4306,--,27,优,0.5,优,#00E400,#00E400,330226001,优,--,宁波市,#00E400,--,39,15,#00E400,96,2026-05-26 10:00:00
100,优,330225,--,29.2003,优,--,49,19,48,--,--,--,--,石浦新港小学,#00E400,--,优,--,优,330200,--,121.934,#00E400,--,--,0.6,--,#00E400,#FFFF00,330225002,良,--,宁波市,--,--,--,36,#00E400,96,2026-05-26 10:00:00
101,优,330327,--,27.503889,优,--,40,1,30,--,#00E400,#00E400,11,灵溪,#00E400,--,优,--,优,330300,#00E400,120.395278,#00E400,14,优,0.3,优,#00E400,#00E400,330327001,优,--,温州市,--,优,18,27,#00E400,96,2026-05-26 10:00:00
102,优,330327,--,27.522222,优,--,43,7,31,--,#00E400,#00E400,7,苍南中学,#00E400,--,优,--,优,330300,#00E400,120.416111,#00E400,14,优,0.6,优,#00E400,#00E400,330327004,优,--,温州市,--,优,21,30,#00E400,96,2026-05-26 10:00:00
103,优,330421,50,30.836,--,--,46,28,42,优,#00E400,#00E400,3,嘉善监测大楼,#00E400,--,优,--,优,330400,#00E400,120.9226,#00E400,18,优,--,优,--,#FFFF00,330421001,良,--,嘉兴市,#00E400,优,17,39,#00E400,96,2026-05-26 10:00:00
104,优,330522,--,31.0143,优,--,28,18,30,--,#00E400,#00E400,2,职教中心,#00E400,--,优,--,优,330500,#00E400,119.8935,#00E400,4,优,0.5,优,#00E400,#00E400,330522001,优,--,湖州市,--,优,6,16,#00E400,96,2026-05-26 10:00:00
105,优,330726,--,29.439787,优,--,25,10,6,--,#00E400,#00E400,2,浦江中学,#00E400,--,优,--,优,330700,#00E400,119.924638,#00E400,19,优,0.6,优,#00E400,#00E400,330726002,优,--,金华市,--,优,33,15,#00E400,96,2026-05-26 10:00:00
106,优,330727,--,29.051486,优,--,22,12,4,--,#00E400,#00E400,8,国税大楼,#00E400,--,优,--,优,330700,#00E400,120.438346,#00E400,13,优,0.6,优,#00E400,#00E400,330727002,优,--,金华市,--,优,20,10,#00E400,96,2026-05-26 10:00:00
107,优,330781,--,29.229931,优,--,29,17,8,--,#00E400,#00E400,8,兰溪八中,#00E400,--,优,--,优,330700,#00E400,119.475172,#00E400,29,优,0.6,优,#00E400,#00E400,330781002,优,--,金华市,--,优,49,17,#00E400,96,2026-05-26 10:00:00
108,优,330782,--,29.335473,优,--,28,28,11,--,#00E400,#00E400,5,北苑,#00E400,--,优,--,优,330700,#00E400,120.078609,#00E400,19,优,0.9,优,#00E400,#00E400,330782001,优,--,金华市,--,优,38,15,#00E400,96,2026-05-26 10:00:00
109,优,330921,--,30.2669,--,--,36,35,46,--,#00E400,#00E400,5,岱山环保大楼,#00E400,--,优,--,优,330900,#00E400,122.2199,#00E400,27,优,--,优,--,#00E400,330921001,优,--,舟山市,--,优,44,29,#00E400,96,2026-05-26 10:00:00
110,优,331083,39,28.12715,优,--,40,20,25,优,#00E400,#00E400,--,玉环环监站,#00E400,--,优,--,优,331000,--,121.2339,#00E400,24,优,0.8,优,#00E400,#00E400,331021001,优,--,台州市,#00E400,--,43,26,#00E400,96,2026-05-26 10:00:00
111,优,331023,--,29.1342,优,--,23,--,14,--,#00E400,#00E400,--,天台实验中学,#00E400,--,--,--,优,331000,--,121.0349,--,18,优,0.7,优,#00E400,#00E400,331023002,优,--,台州市,--,--,29,13,#00E400,96,2026-05-26 10:00:00
112,优,331081,46,28.37558,--,--,37,26,34,优,--,#FFFF00,6,温岭环监站,#00E400,--,优,--,优,331000,#00E400,121.36579,#00E400,36,--,--,良,--,#00E400,331081001,优,--,台州市,#00E400,优,--,31,#00E400,96,2026-05-26 10:00:00
113,优,331125,--,28.1062,优,--,40,14,7,--,#00E400,#00E400,6,云和三中,#00E400,--,优,--,优,331100,#00E400,119.5728,#00E400,11,优,0.6,优,#00E400,#00E400,331125002,优,--,丽水市,--,优,34,16,#00E400,96,2026-05-26 10:00:00
114,优,331126,14,27.629585,优,--,24,15,6,优,#00E400,#00E400,--,庆元监测楼,#00E400,--,优,--,优,331100,--,119.054809,#00E400,23,优,1.0,优,#00E400,#00E400,331126001,优,--,丽水市,#00E400,--,30,15,#00E400,96,2026-05-26 10:00:00
115,优,330723,19,28.9178,优,--,28,--,7,优,#00E400,#00E400,--,武义北岭幼儿园,#00E400,--,--,--,优,330700,--,119.8022,--,30,优,1.0,优,#00E400,#00E400,330723003,优,--,金华市,#00E400,--,49,21,#00E400,96,2026-05-26 10:00:00
116,优,330212,--,29.7736,优,--,33,16,45,--,#00E400,#00E400,4,钱湖水厂,#00E400,--,优,--,优,330200,#00E400,121.6330,#00E400,15,优,0.9,优,#00E400,#00E400,2013302120001,优,--,宁波市,--,优,23,22,#00E400,96,2026-05-26 10:00:00
117,优,330483,--,30.6355,优,--,34,27,30,--,#00E400,#00E400,9,文化中心,#00E400,--,优,--,优,330400,#00E400,120.5795,#00E400,27,优,0.9,优,#00E400,#00E400,330483003,优,--,嘉兴市,--,优,33,28,#00E400,96,2026-05-26 10:00:00
