,O3H8_level,regioncode,O3,latitude,CO_level,SYWRW,PM10H24,NO2,O3H8,O3_level,PM10_color,PM25_color,SO2,sitename,O3H8_color,AQI,NO2_level,AQI_level,PM10H24_level,districtcode,SO2_color,longitude,NO2_color,PM25,PM10_level,CO,PM25_level,CO_color,PM25H24_color,sitecode,PM25H24_level,AQI_color,districtname,O3_color,SO2_level,PM10,PM25H24,PM10H24_color,sort,time
0,优,330803,38,28.9844,优,--,35,10,27,优,#00E400,#00E400,5,衢州三中（市）,#00E400,12,优,优,优,330800,#00E400,118.9628,#00E400,6,优,0.6,优,#00E400,#00E400,330803704,优,#00E400,衢州市,#00E400,优,7,28,#00E400,1,2026-06-04 13:00:00
1,优,330681,45,29.726389,优,--,35,19,40,优,#00E400,#00E400,6,青少年宫,#00E400,15,优,优,优,330600,#00E400,120.199722,#00E400,8,优,0.8,优,#00E400,#00E400,330681002,优,#00E400,绍兴市,#00E400,优,11,28,#00E400,2,2026-06-04 13:00:00
2,优,331123,47,28.5839,优,--,25,11,26,优,#00E400,#00E400,6,遂昌中学,#00E400,15,优,优,优,331100,#00E400,119.2656,#00E400,10,优,0.6,优,#00E400,#00E400,331123002,优,#00E400,丽水市,#00E400,优,11,13,#00E400,2,2026-06-04 13:00:00
3,优,330213,47,29.6506,优,--,37,14,28,优,#00E400,#00E400,6,奉化教育局,#00E400,16,优,优,优,330200,#00E400,121.4042,#00E400,11,优,0.6,优,#00E400,#00E400,330283005,优,#00E400,宁波市,#00E400,优,16,24,#00E400,4,2026-06-04 13:00:00
4,优,330213,50,29.693,优,--,35,12,26,优,#00E400,#00E400,4,溪口政府大楼,#00E400,16,优,优,优,330200,#00E400,121.2774,#00E400,10,优,0.4,优,#00E400,#00E400,330283T_1,优,#00E400,宁波市,#00E400,优,13,24,#00E400,4,2026-06-04 13:00:00
5,优,331123,50,28.5991,优,--,23,8,25,优,#00E400,#00E400,5,遂昌民政局,#00E400,16,优,优,优,331100,#00E400,119.2622,#00E400,4,优,0.6,优,#00E400,#00E400,331123001,优,#00E400,丽水市,#00E400,优,7,12,#00E400,4,2026-06-04 13:00:00
6,优,330782,52,29.335473,优,--,40,25,40,优,#00E400,#00E400,6,北苑,#00E400,17,优,优,优,330700,#00E400,120.078609,#00E400,7,优,0.9,优,#00E400,#00E400,330782001,优,#00E400,金华市,#00E400,优,11,26,#00E400,7,2026-06-04 13:00:00
7,优,330723,54,28.9178,优,--,41,21,52,优,#00E400,#00E400,8,武义北岭幼儿园,#00E400,17,优,优,优,330700,#00E400,119.8022,#00E400,6,优,0.8,优,#00E400,#00E400,330723003,优,#00E400,金华市,#00E400,优,11,27,#00E400,7,2026-06-04 13:00:00
8,优,330783,52,29.30093,优,--,40,27,37,优,#00E400,#00E400,6,广厦学院,#00E400,18,优,优,优,330700,#00E400,120.24157,#00E400,9,优,0.9,优,#00E400,#00E400,330783001,优,#00E400,金华市,#00E400,优,18,26,#00E400,9,2026-06-04 13:00:00
9,优,330783,57,29.27739,优,--,37,17,43,优,#00E400,#00E400,6,东阳环保大楼,#00E400,18,优,优,优,330700,#00E400,120.23692,#00E400,12,优,0.8,优,#00E400,#00E400,330783002,优,#00E400,金华市,#00E400,优,13,28,#00E400,9,2026-06-04 13:00:00
10,优,330825,56,29.0464,优,--,43,12,51,优,#00E400,#00E400,4,龙游二高,#00E400,18,优,优,优,330800,#00E400,119.204,#00E400,5,优,0.7,优,#00E400,#00E400,330825002,优,#00E400,衢州市,#00E400,优,11,19,#00E400,9,2026-06-04 13:00:00
11,优,331125,55,28.1173,优,--,28,15,34,优,#00E400,#00E400,5,云和监测楼,#00E400,18,优,优,优,331100,#00E400,119.5626,#00E400,10,优,0.5,优,#00E400,#00E400,331125001,优,#00E400,丽水市,#00E400,优,17,19,#00E400,9,2026-06-04 13:00:00
12,优,331181,57,28.08007,优,--,31,8,34,优,#00E400,#00E400,8,龙泉环保大楼,#00E400,18,优,优,优,331100,#00E400,119.1328,#00E400,6,优,0.4,优,#00E400,#00E400,331181001,优,#00E400,丽水市,#00E400,优,14,22,#00E400,9,2026-06-04 13:00:00
13,优,330681,59,29.7257,优,--,47,19,48,优,#00E400,#00E400,7,城新小学,#00E400,19,优,优,优,330600,#00E400,120.272,#00E400,8,优,0.7,优,#00E400,#00E400,330681505,优,#00E400,绍兴市,#00E400,优,10,31,#00E400,14,2026-06-04 13:00:00
14,优,330213,60,29.6774,优,--,43,16,32,优,#00E400,#00E400,4,大桥市场,#00E400,19,优,优,优,330200,#00E400,121.4237,#00E400,13,优,0.7,优,#00E400,#00E400,330213001,优,#00E400,宁波市,#00E400,优,19,31,#00E400,14,2026-06-04 13:00:00
15,优,330624,58,29.5036,优,--,40,10,31,优,#00E400,#00E400,3,钟楼站,#00E400,19,优,优,优,330600,#00E400,120.8938,#00E400,10,优,0.7,优,#00E400,#00E400,330624001,优,#00E400,绍兴市,#00E400,优,13,28,#00E400,14,2026-06-04 13:00:00
16,优,330726,58,29.465746,优,--,26,3,50,优,#00E400,#00E400,6,浦江实验中学,#00E400,19,优,优,优,330700,#00E400,119.875227,#00E400,4,优,0.7,优,#00E400,#00E400,330726001,优,#00E400,金华市,#00E400,优,7,18,#00E400,14,2026-06-04 13:00:00
17,优,330784,59,28.8854,优,--,54,16,42,优,#00E400,#00E400,6,永康一中,#00E400,19,优,优,良,330700,#00E400,120.0439,#00E400,9,优,0.7,优,#00E400,#00E400,330784001,优,#00E400,金华市,#00E400,优,19,34,#FFFF00,14,2026-06-04 13:00:00
18,优,331124,54,28.4505,优,--,31,29,40,优,#00E400,#00E400,5,松阳监测楼,#00E400,19,优,优,优,331100,#00E400,119.4799,#00E400,13,优,0.7,优,#00E400,#00E400,331124001,优,#00E400,丽水市,#00E400,优,16,18,#00E400,14,2026-06-04 13:00:00
19,优,331127,61,28.002222,优,--,32,7,43,优,#00E400,#00E400,4,红星小学,#00E400,20,优,优,优,331100,#00E400,119.636389,#00E400,12,优,0.5,优,#00E400,#00E400,331127003,优,#00E400,丽水市,#00E400,优,17,22,#00E400,20,2026-06-04 13:00:00
20,优,330182,62,29.4769,优,--,24,9,50,优,#00E400,#00E400,7,建德监测大楼,#00E400,20,优,优,优,330100,#00E400,119.2711,#00E400,6,优,0.8,优,#00E400,#00E400,330182T_2,优,#00E400,杭州市,#00E400,优,9,16,#00E400,20,2026-06-04 13:00:00
21,优,330127,62,29.5995,优,--,20,4,55,优,#00E400,#00E400,8,淳安环保大楼,#00E400,20,优,优,优,330100,#00E400,119.0481,#00E400,4,优,0.5,优,#00E400,#00E400,330127001,优,#00E400,杭州市,#00E400,优,6,15,#00E400,20,2026-06-04 13:00:00
22,优,330281,64,30.0497,优,--,32,9,41,优,#00E400,#00E400,4,龙山公园,#00E400,20,优,优,优,330200,#00E400,121.1475,#00E400,8,优,0.6,优,#00E400,#00E400,330281001,优,#00E400,宁波市,#00E400,优,11,25,#00E400,20,2026-06-04 13:00:00
23,优,330723,63,28.896108,优,--,39,22,54,优,#00E400,#00E400,7,武义县政府,#00E400,20,优,优,优,330700,#00E400,119.811352,#00E400,11,优,0.8,优,#00E400,#00E400,330723001,优,#00E400,金华市,#00E400,优,17,26,#00E400,20,2026-06-04 13:00:00
24,优,330726,61,29.439787,优,--,26,10,51,优,#00E400,#00E400,3,浦江中学,#00E400,20,优,优,优,330700,#00E400,119.924638,#00E400,7,优,0.5,优,#00E400,#00E400,330726002,优,#00E400,金华市,#00E400,优,8,19,#00E400,20,2026-06-04 13:00:00
25,--,330782,62,29.305096,优,--,39,17,--,优,#00E400,#00E400,5,江东,--,20,优,优,优,330700,#00E400,120.090442,#00E400,8,优,0.7,优,#00E400,#00E400,330782002,优,#00E400,金华市,#00E400,优,8,29,#00E400,20,2026-06-04 13:00:00
26,优,330824,64,29.1343,优,--,23,7,45,优,#00E400,#00E400,6,开化气象局,#00E400,20,优,优,优,330800,#00E400,118.402,#00E400,4,优,0.4,优,#00E400,#00E400,330824001,优,#00E400,衢州市,#00E400,优,14,10,#00E400,20,2026-06-04 13:00:00
27,优,331124,57,28.4516,优,--,30,25,43,优,#00E400,#00E400,5,和平水厂,#00E400,20,优,优,优,331100,#00E400,119.4699,#00E400,8,优,0.7,优,#00E400,#00E400,331124002,优,#00E400,丽水市,#00E400,优,20,17,#00E400,20,2026-06-04 13:00:00
28,优,331125,47,28.1062,优,--,28,9,32,优,#00E400,#00E400,6,云和三中,#00E400,20,优,优,优,331100,#00E400,119.5728,#00E400,14,优,0.6,优,#00E400,#00E400,331125002,优,#00E400,丽水市,#00E400,优,10,20,#00E400,20,2026-06-04 13:00:00
29,优,331181,62,28.076,优,--,29,9,36,优,#00E400,#00E400,9,粮食大楼,#00E400,20,优,优,优,331100,#00E400,119.1217,#00E400,7,优,0.6,优,#00E400,#00E400,331181002,优,#00E400,丽水市,#00E400,优,18,19,#00E400,20,2026-06-04 13:00:00
30,优,331127,61,27.9772,优,--,26,7,43,优,#00E400,#00E400,4,景宁县政府,#00E400,20,优,优,优,331100,#00E400,119.6311,#00E400,10,优,0.5,优,#00E400,#00E400,331127002,优,#00E400,丽水市,#00E400,优,16,18,#00E400,20,2026-06-04 13:00:00
31,优,330782,62,29.3686,优,--,46,25,43,优,#00E400,#00E400,8,第五中学,#00E400,20,优,优,优,330700,#00E400,120.1345,#00E400,6,优,0.8,优,#00E400,#00E400,330782003,优,#00E400,金华市,#00E400,优,10,28,#00E400,20,2026-06-04 13:00:00
32,优,330781,66,29.216166,优,--,29,8,44,优,#00E400,#00E400,6,兰溪监测站,#00E400,21,优,优,优,330700,#00E400,119.459992,#00E400,6,优,1.1,优,#00E400,#00E400,330781001,优,#00E400,金华市,#00E400,优,7,21,#00E400,33,2026-06-04 13:00:00
33,优,330881,67,28.7465,优,--,31,2,50,优,#00E400,#00E400,1,江山环保大楼,#00E400,21,优,优,优,330800,#00E400,118.6301,#00E400,6,优,0.7,优,#00E400,#00E400,330881001,优,#00E400,衢州市,#00E400,优,9,22,#00E400,33,2026-06-04 13:00:00
34,优,331023,66,29.1504,优,--,36,10,44,优,#00E400,#00E400,5,育青中学,#00E400,21,优,优,优,331000,#00E400,121.0091,#00E400,8,优,0.6,优,#00E400,#00E400,331023001,优,#00E400,台州市,#00E400,优,13,25,#00E400,33,2026-06-04 13:00:00
35,优,330782,67,29.2637,优,--,48,13,44,优,#00E400,#00E400,6,儿童公园,#00E400,21,优,优,优,330700,#00E400,120.0321,#00E400,8,优,0.5,优,#00E400,#00E400,330782004,优,#00E400,金华市,#00E400,优,11,28,#00E400,33,2026-06-04 13:00:00
36,优,330122,68,29.7955,优,--,31,16,60,优,#00E400,#00E400,6,桐庐江南,#00E400,22,优,优,优,330100,#00E400,119.6874,#00E400,4,优,0.6,优,#00E400,#00E400,330122001,优,#00E400,杭州市,#00E400,优,8,19,#00E400,37,2026-06-04 13:00:00
37,优,330281,68,30.0358,优,--,28,10,41,优,#00E400,#00E400,4,姚江小学,#00E400,22,优,优,优,330200,#00E400,121.1221,#00E400,7,优,0.7,优,#00E400,#00E400,330281002,优,#00E400,宁波市,#00E400,优,10,23,#00E400,37,2026-06-04 13:00:00
38,优,330328,68,27.7838,优,--,47,4,56,优,#00E400,#00E400,7,大峃,#00E400,22,优,优,优,330300,#00E400,120.085,#00E400,12,优,0.4,优,#00E400,#00E400,330328001,优,#00E400,温州市,#00E400,优,22,31,#00E400,37,2026-06-04 13:00:00
39,优,330624,70,29.4938,优,--,36,12,38,优,#00E400,#00E400,4,城东站,#00E400,22,优,优,优,330600,#00E400,120.9109,#00E400,10,优,0.6,优,#00E400,#00E400,330624002,优,#00E400,绍兴市,#00E400,优,13,26,#00E400,37,2026-06-04 13:00:00
40,优,330822,68,28.901,优,--,22,10,54,优,#00E400,#00E400,5,常山环保大楼,#00E400,22,优,优,优,330800,#00E400,118.5196,#00E400,2,优,0.6,优,#00E400,#00E400,330822001,优,#00E400,衢州市,#00E400,优,11,14,#00E400,37,2026-06-04 13:00:00
41,优,330824,69,29.1478,优,--,18,7,47,优,#00E400,#00E400,7,开化监测大楼,#00E400,22,优,优,优,330800,#00E400,118.4108,#00E400,5,优,0.5,优,#00E400,#00E400,330824002,优,#00E400,衢州市,#00E400,优,8,12,#00E400,37,2026-06-04 13:00:00
42,优,330182,71,29.4638,优,--,26,13,56,优,#00E400,#00E400,5,第二中学,#00E400,23,优,优,优,330100,#00E400,119.2821,#00E400,5,优,0.7,优,#00E400,#00E400,330182002,优,#00E400,杭州市,#00E400,优,8,20,#00E400,43,2026-06-04 13:00:00
43,优,330328,73,27.804722,优,--,45,3,63,优,#00E400,#00E400,7,文成中学,#00E400,23,优,优,优,330300,#00E400,120.077222,#00E400,15,优,0.4,优,#00E400,#00E400,330328002,优,#00E400,温州市,#00E400,优,22,31,#00E400,43,2026-06-04 13:00:00
44,优,330727,73,29.039869,优,--,39,9,44,优,#00E400,#00E400,5,南园初中,#00E400,23,优,优,优,330700,#00E400,120.440622,#00E400,5,优,0.6,优,#00E400,#00E400,330727003,优,#00E400,金华市,#00E400,优,11,28,#00E400,43,2026-06-04 13:00:00
45,优,330781,72,29.229931,优,--,29,7,44,优,#00E400,#00E400,5,兰溪八中,#00E400,23,优,优,优,330700,#00E400,119.475172,#00E400,8,优,0.6,优,#00E400,#00E400,330781002,优,#00E400,金华市,#00E400,优,9,23,#00E400,43,2026-06-04 13:00:00
46,优,330881,71,28.7282,优,--,33,11,54,优,#00E400,#00E400,6,人民医院,#00E400,23,优,优,优,330800,#00E400,118.6227,#00E400,5,优,0.6,优,#00E400,#00E400,330881002,优,#00E400,衢州市,#00E400,优,9,26,#00E400,43,2026-06-04 13:00:00
47,优,331023,72,29.1342,优,--,39,10,53,优,#00E400,#00E400,5,天台实验中学,#00E400,23,优,优,优,331000,#00E400,121.0349,#00E400,10,优,0.7,优,#00E400,#00E400,331023002,优,#00E400,台州市,#00E400,优,16,26,#00E400,43,2026-06-04 13:00:00
48,优,330122,76,29.8058,优,--,27,14,62,优,#00E400,#00E400,4,桐庐江北,#00E400,24,优,优,优,330100,#00E400,119.669,#00E400,4,优,0.5,优,#00E400,#00E400,330122002,优,#00E400,杭州市,#00E400,优,7,19,#00E400,49,2026-06-04 13:00:00
49,优,330225,74,29.4767,优,--,40,6,61,优,#00E400,#00E400,8,文峰小学,#00E400,24,优,优,优,330200,#00E400,121.8864,#00E400,15,优,0.5,优,#00E400,#00E400,330225001,优,#00E400,宁波市,#00E400,优,16,35,#00E400,49,2026-06-04 13:00:00
50,优,330822,74,28.9012,优,--,27,13,59,优,#00E400,#00E400,5,图书馆大楼,#00E400,24,优,优,优,330800,#00E400,118.5062,#00E400,4,优,0.4,优,#00E400,#00E400,330822002,优,#00E400,衢州市,#00E400,优,17,14,#00E400,49,2026-06-04 13:00:00
51,优,331022,74,29.1028,优,--,43,6,54,优,#00E400,#00E400,4,心湖站,#00E400,24,优,优,优,331000,#00E400,121.3918,#00E400,9,优,0.5,优,#00E400,#00E400,331022002,优,#00E400,台州市,#00E400,优,11,32,#00E400,49,2026-06-04 13:00:00
52,优,331122,75,28.6628,优,--,44,21,65,优,#00E400,#00E400,7,信访大楼,#00E400,24,优,优,优,331100,#00E400,120.0856,#00E400,11,优,0.7,优,#00E400,#00E400,331122002,优,#00E400,丽水市,#00E400,优,16,30,#00E400,49,2026-06-04 13:00:00
53,优,331126,74,27.629585,优,--,24,7,47,优,#00E400,#00E400,4,庆元监测楼,#00E400,24,优,优,优,331100,#00E400,119.054809,#00E400,6,优,0.5,优,#00E400,#00E400,331126001,优,#00E400,丽水市,#00E400,优,17,15,#00E400,49,2026-06-04 13:00:00
54,优,330683,49,29.5901,优,--,39,15,27,优,#00E400,#00E400,3,马寅初初中,#00E400,25,优,优,优,330600,#00E400,120.8249,#00E400,17,优,0.7,优,#00E400,#00E400,330683001,优,#00E400,绍兴市,#00E400,优,21,31,#00E400,55,2026-06-04 13:00:00
55,优,330683,67,29.5663,优,--,37,23,45,优,#00E400,#00E400,3,丽湖小区,#00E400,25,优,优,优,330600,#00E400,120.8173,#00E400,17,优,0.7,优,#00E400,#00E400,330683002,优,#00E400,绍兴市,#00E400,优,17,32,#00E400,55,2026-06-04 13:00:00
56,优,330727,79,29.051486,优,--,34,13,45,优,#00E400,#00E400,7,国税大楼,#00E400,25,优,优,优,330700,#00E400,120.438346,#00E400,4,优,0.6,优,#00E400,#00E400,330727002,优,#00E400,金华市,#00E400,优,9,23,#00E400,55,2026-06-04 13:00:00
57,优,330825,79,29.0392,优,--,30,16,75,优,#00E400,#00E400,5,建设大楼,#00E400,25,优,优,优,330800,#00E400,119.1675,#00E400,7,优,0.6,优,#00E400,#00E400,330825001,优,#00E400,衢州市,#00E400,优,8,21,#00E400,55,2026-06-04 13:00:00
58,优,331082,78,28.84326,优,--,46,11,61,优,#00E400,#00E400,3,巾山实验小学,#00E400,25,优,优,优,331000,#00E400,121.136,#00E400,14,优,0.6,优,#00E400,#00E400,331082002,优,#00E400,台州市,#00E400,优,20,33,#00E400,55,2026-06-04 13:00:00
59,优,331022,77,29.11779,优,--,42,11,66,优,#00E400,#00E400,6,三门环监楼,#00E400,25,优,优,优,331000,#00E400,121.382189,#00E400,10,优,0.6,优,#00E400,#00E400,331022001,优,#00E400,台州市,#00E400,优,15,32,#00E400,55,2026-06-04 13:00:00
60,优,330282,82,30.1636,优,--,47,6,50,优,#00E400,#00E400,3,慈溪环保大楼,#00E400,26,优,优,优,330200,#00E400,121.2677,#00E400,13,优,0.6,优,#00E400,#00E400,330282001,优,#00E400,宁波市,#00E400,优,22,25,#00E400,61,2026-06-04 13:00:00
61,优,331082,81,28.873,优,--,41,10,66,优,#00E400,#00E400,5,临海环保大楼,#00E400,26,优,优,优,331000,#00E400,121.1769,#00E400,7,优,0.7,优,#00E400,#00E400,331082001,优,#00E400,台州市,#00E400,优,11,30,#00E400,61,2026-06-04 13:00:00
62,优,331126,67,27.6211,优,--,24,9,47,优,#00E400,#00E400,5,庆元气象局,#00E400,26,优,优,优,331100,#00E400,119.0788,#00E400,10,优,0.7,优,#00E400,#00E400,331126002,优,#00E400,丽水市,#00E400,优,26,16,#00E400,61,2026-06-04 13:00:00
63,优,330282,84,30.1786,优,--,48,9,53,优,#00E400,#00E400,4,慈溪实验小学,#00E400,27,优,优,优,330200,#00E400,121.2525,#00E400,15,优,0.5,优,#00E400,#00E400,330282002,优,#00E400,宁波市,#00E400,优,22,27,#00E400,64,2026-06-04 13:00:00
64,优,330329,84,27.5438,优,--,30,3,74,优,#00E400,#00E400,6,泰顺实验中学,#00E400,27,优,优,优,330300,#00E400,119.716111,#00E400,13,优,0.3,优,#00E400,#00E400,330329002,优,#00E400,温州市,#00E400,优,21,20,#00E400,64,2026-06-04 13:00:00
65,优,331024,86,28.7403,优,--,33,9,60,优,#00E400,#00E400,5,新生中学,#00E400,27,优,优,优,331000,#00E400,120.4728,#00E400,7,优,0.6,优,#00E400,#00E400,331024002,优,#00E400,台州市,#00E400,优,9,23,#00E400,64,2026-06-04 13:00:00
66,优,330225,77,29.2003,优,--,44,9,62,优,#00E400,#00E400,8,石浦新港小学,#00E400,29,优,优,优,330200,#00E400,121.934,#00E400,19,优,0.7,优,#00E400,#00E400,330225002,优,#00E400,宁波市,#00E400,优,29,27,#00E400,67,2026-06-04 13:00:00
67,优,330110,91,30.2635,优,--,30,12,56,优,#00E400,#00E400,9,海辰小学,#00E400,29,优,优,优,330100,#00E400,119.9842,#00E400,15,优,0.6,优,#00E400,#00E400,2013301100001,优,#00E400,杭州市,#00E400,优,29,21,#00E400,67,2026-06-04 13:00:00
68,优,331122,94,28.6574,优,--,41,22,78,优,#00E400,#00E400,7,缙云中学,#00E400,30,优,优,优,331100,#00E400,120.0696,#00E400,9,优,0.7,优,#00E400,#00E400,331122001,优,#00E400,丽水市,#00E400,优,13,29,#00E400,69,2026-06-04 13:00:00
69,优,330324,99,28.158269,优,--,56,7,72,优,#00E400,#00E400,7,上塘,#00E400,32,优,优,良,330300,#00E400,120.694244,#00E400,22,优,0.8,优,#00E400,#00E400,330324001,优,#00E400,温州市,#00E400,优,30,30,#FFFF00,70,2026-06-04 13:00:00
70,优,331121,64,28.1094,优,--,34,9,48,优,#00E400,#00E400,4,青田中学,#00E400,32,优,优,优,331100,#00E400,120.3161,#00E400,22,优,0.6,优,#00E400,#00E400,331121002,优,#00E400,丽水市,#00E400,优,32,20,#00E400,70,2026-06-04 13:00:00
71,优,330922,105,30.7269,优,--,34,10,63,优,#00E400,#00E400,7,嵊泗菜园,#00E400,33,优,优,优,330900,#00E400,122.4464,#00E400,5,优,0.6,优,#00E400,#00E400,330922001,优,#00E400,舟山市,#00E400,优,6,25,#00E400,72,2026-06-04 13:00:00
72,优,331121,74,28.1341,优,--,35,8,57,优,#00E400,#00E400,5,塔山小学,#00E400,34,优,优,优,331100,#00E400,120.2936,#00E400,22,优,0.6,优,#00E400,#00E400,331121001,优,#00E400,丽水市,#00E400,优,34,20,#00E400,73,2026-06-04 13:00:00
73,优,330784,53,28.90016,优,--,56,22,35,优,#00E400,#00E400,8,西城供电所,#00E400,35,优,优,良,330700,#00E400,120.01452,#00E400,23,优,0.8,优,#00E400,#00E400,330784002,优,#00E400,金华市,#00E400,优,35,33,#FFFF00,74,2026-06-04 13:00:00
74,优,331081,107,28.37558,优,--,53,12,78,优,#00E400,#00E400,6,温岭环监站,#00E400,36,优,优,良,331000,#00E400,121.36579,#00E400,25,优,0.7,优,#00E400,#FFFF00,331081001,良,#00E400,台州市,#00E400,优,35,45,#FFFF00,75,2026-06-04 13:00:00
75,优,330324,95,28.044335,优,--,52,16,68,优,#00E400,#00E400,5,瓯北,#00E400,37,优,优,良,330300,#00E400,120.654963,#00E400,20,优,0.7,优,#00E400,#00E400,330324002,优,#00E400,温州市,#00E400,优,37,25,#FFFF00,76,2026-06-04 13:00:00
76,优,330481,118,30.5137,优,--,37,4,64,优,#00E400,#00E400,8,硖石街道,#00E400,37,优,优,优,330400,#00E400,120.7082,#00E400,22,优,0.7,优,#00E400,#00E400,330481002,优,#00E400,嘉兴市,#00E400,优,31,28,#00E400,76,2026-06-04 13:00:00
77,优,330483,118,30.625,优,--,54,16,72,优,#00E400,#00E400,5,振东新六中站,#00E400,37,优,优,良,330400,#00E400,120.5613,#00E400,18,优,0.6,优,#00E400,#00E400,330483002,优,#00E400,嘉兴市,#00E400,优,21,31,#FFFF00,76,2026-06-04 13:00:00
78,优,330481,119,30.5261,优,--,45,14,72,优,#00E400,#00E400,6,海宁监测大楼,#00E400,38,优,优,优,330400,#00E400,120.6739,#00E400,22,优,0.5,优,#00E400,#00E400,330481001,优,#00E400,嘉兴市,#00E400,优,35,29,#00E400,79,2026-06-04 13:00:00
79,优,330226,71,29.3125,优,--,45,21,51,优,#00E400,#00E400,5,宁海水利局,#00E400,39,优,优,优,330200,#00E400,121.4306,#00E400,27,优,0.6,优,#00E400,#00E400,330226001,优,#00E400,宁波市,#00E400,优,38,31,#00E400,80,2026-06-04 13:00:00
80,优,330424,122,30.5042,优,--,40,14,71,优,#00E400,#00E400,5,高级中学,#00E400,39,优,优,优,330400,#00E400,120.9413,#00E400,24,优,0.6,优,#00E400,#00E400,330424001,优,#00E400,嘉兴市,#00E400,优,25,32,#00E400,80,2026-06-04 13:00:00
81,优,330424,124,30.5299,优,--,35,19,72,优,#00E400,#00E400,4,海盐商贸学校,#00E400,39,优,优,优,330400,#00E400,120.9293,#00E400,22,优,0.6,优,#00E400,#00E400,330424002,优,#00E400,嘉兴市,#00E400,优,22,30,#00E400,80,2026-06-04 13:00:00
82,优,331081,112,28.39136,优,--,--,7,79,优,#00E400,#00E400,3,之江高级中学,#00E400,39,优,优,--,331000,#00E400,121.37696,#00E400,23,优,0.6,优,#00E400,#00E400,331081002,优,#00E400,台州市,#00E400,优,39,35,--,80,2026-06-04 13:00:00
83,优,330226,72,29.2878,优,--,43,17,42,优,#00E400,#00E400,6,宁海城南站,#00E400,40,优,优,优,330200,#00E400,121.4201,#00E400,27,优,0.5,优,#00E400,#00E400,330226002,优,#00E400,宁波市,#00E400,优,40,29,#00E400,84,2026-06-04 13:00:00
84,优,330483,127,30.6488,优,--,40,13,71,优,#00E400,#00E400,5,茅盾小学,#00E400,40,优,优,优,330400,#00E400,120.5498,#00E400,19,优,0.5,优,#00E400,#00E400,330483001,优,#00E400,嘉兴市,#00E400,优,27,27,#00E400,84,2026-06-04 13:00:00
85,优,330521,126,30.5231,优,--,29,7,64,优,#00E400,#00E400,7,地信科创园,#00E400,40,优,优,优,330500,#00E400,119.9781,#00E400,24,优,0.8,优,#00E400,#00E400,330521001,优,#00E400,湖州市,#00E400,优,33,20,#00E400,84,2026-06-04 13:00:00
86,优,330481,127,30.5524,优,--,42,9,71,优,#00E400,#00E400,6,胜利社区,#00E400,40,优,优,优,330400,#00E400,120.6713,#00E400,20,优,0.7,优,#00E400,#00E400,330481003,优,#00E400,嘉兴市,#00E400,优,27,25,#00E400,84,2026-06-04 13:00:00
87,优,330305,113,27.8342,优,--,36,8,72,优,#00E400,#00E400,8,洞头气象局,#00E400,43,优,优,优,330300,#00E400,121.1502,#00E400,30,优,0.7,优,#00E400,#00E400,330305001,优,#00E400,温州市,#00E400,优,41,22,#00E400,88,2026-06-04 13:00:00
88,优,330483,136,30.6355,优,--,37,7,69,优,#00E400,#00E400,8,文化中心,#00E400,43,优,优,优,330400,#00E400,120.5795,#00E400,18,优,0.7,优,#00E400,#00E400,330483003,优,#00E400,嘉兴市,#00E400,优,21,29,#00E400,88,2026-06-04 13:00:00
89,优,330483,141,30.7369,优,--,40,6,72,优,#00E400,#00E400,6,植材小学,#00E400,45,优,优,优,330400,#00E400,120.4902,#00E400,17,优,0.8,优,#00E400,#00E400,330483509,优,#00E400,嘉兴市,#00E400,优,31,28,#00E400,90,2026-06-04 13:00:00
90,优,330521,131,30.548493,优,--,30,11,62,优,#00E400,#00E400,8,春晖小学,#00E400,45,优,优,优,330500,#00E400,119.9505,#00E400,31,优,0.7,优,#00E400,#00E400,330521003,优,#00E400,湖州市,#00E400,优,40,23,#00E400,90,2026-06-04 13:00:00
91,优,330482,147,30.7292,优,--,40,7,74,优,#00E400,#00E400,8,陆家桥村,#00E400,46,优,优,优,330400,#00E400,120.9953,#00E400,22,优,0.8,优,#00E400,#00E400,330482002,优,#00E400,嘉兴市,#00E400,优,22,31,#00E400,92,2026-06-04 13:00:00
92,优,330421,148,30.836,优,--,47,8,86,优,#00E400,#00E400,7,嘉善监测大楼,#00E400,47,优,优,优,330400,#00E400,120.9226,#00E400,23,优,0.7,优,#00E400,#FFFF00,330421001,良,#00E400,嘉兴市,#00E400,优,26,36,#00E400,93,2026-06-04 13:00:00
93,优,330482,155,30.6937,优,--,36,7,74,优,#00E400,#00E400,8,平湖幼儿园,#00E400,49,优,优,优,330400,#00E400,121.0259,#00E400,22,优,0.7,优,#00E400,#00E400,330482001,优,#00E400,嘉兴市,#00E400,优,27,28,#00E400,94,2026-06-04 13:00:00
94,优,330421,154,30.8307,优,--,42,8,81,优,#00E400,#00E400,8,气象观测台,#00E400,49,优,优,优,330400,#00E400,120.9356,#00E400,20,优,0.7,优,#00E400,#00E400,330421002,优,#00E400,嘉兴市,#00E400,优,26,27,#00E400,94,2026-06-04 13:00:00
95,优,330381,121,27.791645,优,PM₁₀,53,12,74,优,#FFFF00,#00E400,5,花园桥,#00E400,52,优,良,良,330300,#00E400,120.62372,#00E400,28,良,0.6,优,#00E400,#00E400,330381001,优,#FFFF00,温州市,#00E400,优,52,28,#FFFF00,96,2026-06-04 13:00:00
96,优,330382,129,28.0297,优,PM₁₀,63,16,99,优,#FFFF00,#00E400,6,柳市,#00E400,53,优,良,良,330300,#00E400,120.891,#00E400,32,良,0.7,优,#00E400,#00E400,330382002,优,#FFFF00,温州市,#00E400,优,53,32,#FFFF00,97,2026-06-04 13:00:00
97,优,330326,156,27.6593,优,PM₁₀,58,12,88,优,#FFFF00,#00E400,9,平阳监测站,#00E400,58,优,良,良,330300,#00E400,120.5705,#00E400,35,良,0.8,优,#00E400,#00E400,330326001,优,#FFFF00,温州市,#00E400,优,61,33,#FFFF00,98,2026-06-04 13:00:00
98,优,330327,159,27.522222,优,PM₂.₅,--,14,85,优,#FFFF00,#FFFF00,8,苍南中学,#00E400,60,优,良,--,330300,#00E400,120.416111,#00E400,40,良,1.0,良,#00E400,--,330327004,--,#FFFF00,温州市,#00E400,优,54,--,--,99,2026-06-04 13:00:00
99,优,330523,138,30.6422,优,PM₁₀,36,8,64,优,#FFFF00,#00E400,8,安吉实验小学,#00E400,60,优,良,优,330500,#00E400,119.6768,#00E400,34,良,0.8,优,#00E400,#00E400,330523001,优,#FFFF00,湖州市,#00E400,优,63,26,#00E400,99,2026-06-04 13:00:00
100,优,331083,129,28.12715,优,PM₂.₅,32,10,78,优,#FFFF00,#FFFF00,9,玉环环监站,#00E400,60,优,良,优,331000,#00E400,121.2339,#00E400,40,良,0.8,良,#00E400,#00E400,331021001,优,#FFFF00,台州市,#00E400,优,57,27,#00E400,99,2026-06-04 13:00:00
101,优,330327,131,27.503889,优,PM₂.₅,53,9,74,优,#00E400,#FFFF00,10,灵溪,#00E400,62,优,良,良,330300,#00E400,120.395278,#00E400,41,优,0.7,良,#00E400,#00E400,330327001,优,#FFFF00,温州市,#00E400,优,31,34,#FFFF00,102,2026-06-04 13:00:00
102,优,330522,163,31.0143,优,PM₂.₅,35,11,71,良,#00E400,#FFFF00,3,职教中心,#00E400,62,优,良,优,330500,#00E400,119.8935,#00E400,41,优,0.6,良,#00E400,#00E400,330522001,优,#FFFF00,湖州市,#FFFF00,优,46,25,#00E400,102,2026-06-04 13:00:00
103,优,330921,107,30.2669,优,PM₂.₅,57,21,66,优,#FFFF00,#FFFF00,7,岱山环保大楼,#00E400,68,优,良,良,330900,#00E400,122.2199,#00E400,44,良,0.8,良,#00E400,#FFFF00,330921001,良,#FFFF00,舟山市,#00E400,优,53,41,#FFFF00,104,2026-06-04 13:00:00
104,优,331083,133,28.2221,优,PM₂.₅,43,14,88,优,#FFFF00,#FFFF00,8,楚门中心小学,#00E400,68,优,良,优,331000,#00E400,121.2846,#00E400,44,良,0.9,良,#00E400,#00E400,331021002,优,#FFFF00,台州市,#00E400,优,56,32,#00E400,104,2026-06-04 13:00:00
105,良,330383,176,27.5617,优,"O₃,PM₂.₅",51,13,104,良,#FFFF00,#FFFF00,8,龙港实验中学,#FFFF00,70,优,良,良,330300,#00E400,120.5355,#00E400,45,良,0.8,良,#00E400,#00E400,330303101,优,#FFFF00,温州市,#FFFF00,优,65,34,#FFFF00,106,2026-06-04 13:00:00
106,优,330382,164,28.1209,优,PM₂.₅,59,13,91,良,#FFFF00,#FFFF00,4,乐成,#00E400,74,优,良,良,330300,#00E400,120.9659,#00E400,47,良,0.8,良,#00E400,#00E400,330382001,优,#FFFF00,温州市,#FFFF00,优,78,33,#FFFF00,107,2026-06-04 13:00:00
107,优,330921,110,30.2517,优,PM₂.₅,58,17,68,优,#FFFF00,#FFFF00,7,岱山高亭,#00E400,76,优,良,良,330900,#00E400,122.1958,#00E400,48,良,0.8,良,#00E400,#FFFF00,330921002,良,#FFFF00,舟山市,#00E400,优,59,40,#FFFF00,108,2026-06-04 13:00:00
108,良,330383,155,27.5812,优,PM₂.₅,59,15,105,优,#FFFF00,#FFFF00,9,龙港,#FFFF00,78,优,良,良,330300,#00E400,120.5489,#00E400,49,良,0.7,良,#00E400,#FFFF00,330327002,良,#FFFF00,温州市,#00E400,优,54,38,#FFFF00,109,2026-06-04 13:00:00
109,优,330381,145,27.782284,优,PM₂.₅,--,11,93,优,#FF7E00,#FF7E00,8,安阳新区,#00E400,134,优,轻度污染,--,330300,#00E400,120.650915,#00E400,97,轻度污染,0.8,轻度污染,#00E400,--,330381002,--,#FF7E00,温州市,#00E400,优,176,--,--,110,2026-06-04 13:00:00
110,优,330127,69,29.605,优,--,18,6,66,优,#00E400,#00E400,--,老年活动中心,#00E400,--,优,--,优,330100,--,119.0372,#00E400,4,优,0.6,优,#00E400,#00E400,330127T_4,优,--,杭州市,#00E400,--,7,13,#00E400,111,2026-06-04 13:00:00
111,优,330326,162,27.6653,优,--,58,13,89,良,#FFFF00,--,5,平阳县政府,#00E400,--,优,--,良,330300,#00E400,120.5611,#00E400,--,良,0.5,--,#00E400,#00E400,330326002,优,--,温州市,#FFFF00,优,64,31,#FFFF00,111,2026-06-04 13:00:00
112,优,330329,89,27.557,优,--,30,5,80,优,#00E400,--,5,罗阳,#00E400,--,优,--,优,330300,#00E400,119.7084,#00E400,--,优,0.4,--,#00E400,#00E400,330329001,优,--,温州市,#00E400,优,14,22,#00E400,111,2026-06-04 13:00:00
113,--,330523,--,30.5974,--,--,--,--,--,--,--,--,--,安吉城东,--,--,--,--,--,330500,--,119.6953,--,--,--,--,--,--,--,330523002,--,--,湖州市,--,--,--,--,--,111,2026-06-04 13:00:00
114,优,330522,152,31.0263,--,--,33,6,70,优,--,#FFFF00,6,龙山新区,#00E400,--,优,--,优,330500,#00E400,119.9046,#00E400,47,--,--,良,--,#00E400,330522002,优,--,湖州市,#00E400,优,--,26,#00E400,111,2026-06-04 13:00:00
115,优,330681,49,29.6818,优,--,--,20,39,优,--,#00E400,5,杨树畈,#00E400,--,优,--,--,330600,#00E400,120.2359,#00E400,8,--,0.7,优,#00E400,#00E400,330681001,优,--,绍兴市,#00E400,优,--,32,--,111,2026-06-04 13:00:00
116,优,331024,81,28.8589,--,--,33,11,58,优,#00E400,#00E400,7,仙居环监站,#00E400,--,优,--,优,331000,#00E400,120.7248,#00E400,9,优,--,优,--,#00E400,331024001,优,--,台州市,#00E400,优,15,21,#00E400,111,2026-06-04 13:00:00
117,优,330212,60,29.7736,--,--,38,13,42,优,--,--,--,钱湖水厂,#00E400,--,优,--,优,330200,--,121.6330,#00E400,--,--,--,--,--,#00E400,2013302120001,优,--,宁波市,#00E400,--,--,28,#00E400,111,2026-06-04 13:00:00
