,O3H8_level,regioncode,O3,latitude,CO_level,SYWRW,PM10H24,NO2,O3H8,O3_level,PM10_color,PM25_color,SO2,sitename,O3H8_color,AQI,NO2_level,AQI_level,PM10H24_level,districtcode,SO2_color,longitude,NO2_color,PM25,PM10_level,CO,PM25_level,CO_color,PM25H24_color,sitecode,PM25H24_level,AQI_color,districtname,O3_color,SO2_level,PM10,PM25H24,PM10H24_color,sort,time
0,优,330803,55,28.9844,优,--,61,9,52,优,#00E400,#00E400,6,衢州三中（市）,#00E400,18,优,优,良,330800,#00E400,118.9628,#00E400,10,优,0.7,优,#00E400,#FFFF00,330803704,良,#00E400,衢州市,#00E400,优,16,48,#FFFF00,1,2026-06-04 01:00:00
1,优,330824,63,29.1343,优,--,36,7,56,优,#00E400,#00E400,6,开化气象局,#00E400,20,优,优,优,330800,#00E400,118.402,#00E400,2,优,0.3,优,#00E400,#00E400,330824001,优,#00E400,衢州市,#00E400,优,9,21,#00E400,2,2026-06-04 01:00:00
2,优,331126,56,27.629585,优,--,29,6,34,优,#00E400,#00E400,4,庆元监测楼,#00E400,20,优,优,优,331100,#00E400,119.054809,#00E400,11,优,0.5,优,#00E400,#00E400,331126001,优,#00E400,丽水市,#00E400,优,20,22,#00E400,2,2026-06-04 01:00:00
3,优,330723,62,28.9178,优,--,66,11,76,优,#00E400,#00E400,7,武义北岭幼儿园,#00E400,20,优,优,良,330700,#00E400,119.8022,#00E400,12,优,0.7,优,#00E400,#FFFF00,330723003,良,#00E400,金华市,#00E400,优,20,46,#FFFF00,2,2026-06-04 01:00:00
4,优,330824,67,29.1478,优,--,35,8,50,优,#00E400,#00E400,9,开化监测大楼,#00E400,21,优,优,优,330800,#00E400,118.4108,#00E400,4,优,0.4,优,#00E400,#00E400,330824002,优,#00E400,衢州市,#00E400,优,8,26,#00E400,5,2026-06-04 01:00:00
5,优,331024,46,28.8589,优,--,50,17,79,优,#00E400,#00E400,7,仙居环监站,#00E400,21,优,优,优,331000,#00E400,120.7248,#00E400,13,优,0.9,优,#00E400,#00E400,331024001,优,#00E400,台州市,#00E400,优,21,31,#00E400,5,2026-06-04 01:00:00
6,优,330381,68,27.782284,优,--,38,11,83,优,#00E400,#00E400,8,安阳新区,#00E400,22,优,优,优,330300,#00E400,120.650915,#00E400,2,优,0.6,优,#00E400,#00E400,330381002,优,#00E400,温州市,#00E400,优,3,22,#00E400,7,2026-06-04 01:00:00
7,优,331121,28,28.1094,优,--,47,7,58,优,#00E400,#00E400,4,青田中学,#00E400,22,优,优,优,331100,#00E400,120.3161,#00E400,12,优,0.6,优,#00E400,#00E400,331121002,优,#00E400,丽水市,#00E400,优,22,29,#00E400,7,2026-06-04 01:00:00
8,优,331126,46,27.6211,优,--,29,5,44,优,#00E400,#00E400,5,庆元气象局,#00E400,22,优,优,优,331100,#00E400,119.0788,#00E400,15,优,0.7,优,#00E400,#00E400,331126002,优,#00E400,丽水市,#00E400,优,21,23,#00E400,7,2026-06-04 01:00:00
9,优,331083,67,28.12715,优,--,30,3,82,优,#00E400,#00E400,9,玉环环监站,#00E400,23,优,优,优,331000,#00E400,121.2339,#00E400,16,优,0.6,优,#00E400,#00E400,331021001,优,#00E400,台州市,#00E400,优,23,23,#00E400,10,2026-06-04 01:00:00
10,优,331121,27,28.1341,优,--,50,33,64,优,#00E400,#00E400,5,塔山小学,#00E400,23,优,优,优,331100,#00E400,120.2936,#00E400,12,优,0.5,优,#00E400,#00E400,331121001,优,#00E400,丽水市,#00E400,优,23,31,#00E400,10,2026-06-04 01:00:00
11,优,331123,20,28.5839,优,--,36,14,38,优,#00E400,#00E400,4,遂昌中学,#00E400,23,优,优,优,331100,#00E400,119.2656,#00E400,7,优,0.6,优,#00E400,#00E400,331123002,优,#00E400,丽水市,#00E400,优,23,23,#00E400,10,2026-06-04 01:00:00
12,优,330822,75,28.901,优,--,44,10,74,优,#00E400,#00E400,5,常山环保大楼,#00E400,24,优,优,优,330800,#00E400,118.5196,#00E400,2,优,0.5,优,#00E400,#00E400,330822001,优,#00E400,衢州市,#00E400,优,4,28,#00E400,13,2026-06-04 01:00:00
13,优,330127,48,29.605,优,--,29,5,61,优,#00E400,#00E400,12,老年活动中心,#00E400,25,优,优,优,330100,#00E400,119.0372,#00E400,17,优,0.7,优,#00E400,#00E400,330127T_4,优,#00E400,杭州市,#00E400,优,24,23,#00E400,14,2026-06-04 01:00:00
14,优,330723,43,28.896108,优,--,58,10,84,优,#00E400,#00E400,7,武义县政府,#00E400,25,优,优,良,330700,#00E400,119.811352,#00E400,14,优,0.7,优,#00E400,#FFFF00,330723001,良,#00E400,金华市,#00E400,优,25,41,#FFFF00,14,2026-06-04 01:00:00
15,优,330881,77,28.7282,优,--,61,8,79,优,#00E400,#00E400,5,人民医院,#00E400,25,优,优,良,330800,#00E400,118.6227,#00E400,2,优,0.5,优,#00E400,#FFFF00,330881002,良,#00E400,衢州市,#00E400,优,9,51,#FFFF00,14,2026-06-04 01:00:00
16,优,330825,79,29.0464,优,--,74,8,72,优,#00E400,#00E400,4,龙游二高,#00E400,25,优,优,良,330800,#00E400,119.204,#00E400,9,优,0.5,优,#00E400,#00E400,330825002,优,#00E400,衢州市,#00E400,优,18,34,#FFFF00,14,2026-06-04 01:00:00
17,优,331123,35,28.5991,优,--,35,8,39,优,#00E400,#00E400,5,遂昌民政局,#00E400,25,优,优,优,331100,#00E400,119.2622,#00E400,11,优,0.6,优,#00E400,#00E400,331123001,优,#00E400,丽水市,#00E400,优,25,23,#00E400,14,2026-06-04 01:00:00
18,优,330822,82,28.9012,优,--,45,11,78,优,#00E400,#00E400,5,图书馆大楼,#00E400,26,优,优,优,330800,#00E400,118.5062,#00E400,1,优,0.3,优,#00E400,#00E400,330822002,优,#00E400,衢州市,#00E400,优,11,29,#00E400,19,2026-06-04 01:00:00
19,优,330881,82,28.7465,优,--,60,2,77,优,#00E400,#00E400,1,江山环保大楼,#00E400,26,优,优,良,330800,#00E400,118.6301,#00E400,4,优,0.5,优,#00E400,#FFFF00,330881001,良,#00E400,衢州市,#00E400,优,9,45,#FFFF00,19,2026-06-04 01:00:00
20,优,331124,33,28.4505,优,--,41,38,42,优,#00E400,#00E400,4,松阳监测楼,#00E400,26,优,优,优,331100,#00E400,119.4799,#00E400,16,优,0.6,优,#00E400,#00E400,331124001,优,#00E400,丽水市,#00E400,优,26,31,#00E400,19,2026-06-04 01:00:00
21,优,331124,38,28.4516,优,--,41,34,48,优,#00E400,#00E400,5,和平水厂,#00E400,26,优,优,优,331100,#00E400,119.4699,#00E400,17,优,0.7,优,#00E400,#00E400,331124002,优,#00E400,丽水市,#00E400,优,26,25,#00E400,19,2026-06-04 01:00:00
22,优,331125,12,28.1062,优,--,33,14,16,优,#00E400,#00E400,6,云和三中,#00E400,26,优,优,优,331100,#00E400,119.5728,#00E400,18,优,0.6,优,#00E400,#00E400,331125002,优,#00E400,丽水市,#00E400,优,23,21,#00E400,19,2026-06-04 01:00:00
23,优,330305,61,27.8342,优,--,39,5,80,优,#00E400,#00E400,7,洞头气象局,#00E400,27,优,优,优,330300,#00E400,121.1502,#00E400,13,优,0.5,优,#00E400,#00E400,330305001,优,#00E400,温州市,#00E400,优,27,23,#00E400,24,2026-06-04 01:00:00
24,优,331122,72,28.6574,优,--,48,22,85,优,#00E400,#00E400,7,缙云中学,#00E400,28,优,优,优,331100,#00E400,120.0696,#00E400,19,优,0.6,优,#00E400,#FFFF00,331122001,良,#00E400,丽水市,#00E400,优,24,36,#00E400,25,2026-06-04 01:00:00
25,优,331125,14,28.1173,优,--,31,17,23,优,#00E400,#00E400,5,云和监测楼,#00E400,28,优,优,优,331100,#00E400,119.5626,#00E400,19,优,0.5,优,#00E400,#00E400,331125001,优,#00E400,丽水市,#00E400,优,28,22,#00E400,25,2026-06-04 01:00:00
26,优,330127,39,29.5995,优,--,37,4,46,优,#00E400,#00E400,8,淳安环保大楼,#00E400,29,优,优,优,330100,#00E400,119.0481,#00E400,20,优,0.6,优,#00E400,#00E400,330127001,优,#00E400,杭州市,#00E400,优,23,25,#00E400,27,2026-06-04 01:00:00
27,优,331181,19,28.076,优,--,33,6,34,优,#00E400,#00E400,9,粮食大楼,#00E400,29,优,优,优,331100,#00E400,119.1217,#00E400,20,优,0.6,优,#00E400,#00E400,331181002,优,#00E400,丽水市,#00E400,优,29,24,#00E400,27,2026-06-04 01:00:00
28,优,331127,21,27.9772,优,--,29,11,31,优,#00E400,#00E400,4,景宁县政府,#00E400,29,优,优,优,331100,#00E400,119.6311,#00E400,20,优,0.6,优,#00E400,#00E400,331127002,优,#00E400,丽水市,#00E400,优,28,20,#00E400,27,2026-06-04 01:00:00
29,优,330922,59,30.7269,优,--,30,16,93,优,#00E400,#00E400,8,嵊泗菜园,#00E400,30,优,优,优,330900,#00E400,122.4464,#00E400,21,优,0.5,优,#00E400,#00E400,330922001,优,#00E400,舟山市,#00E400,优,27,22,#00E400,30,2026-06-04 01:00:00
30,优,330825,99,29.0392,优,--,56,11,91,优,#00E400,#00E400,5,建设大楼,#00E400,31,优,优,良,330800,#00E400,119.1675,#00E400,9,优,0.5,优,#00E400,#FFFF00,330825001,良,#00E400,衢州市,#00E400,优,15,38,#FFFF00,31,2026-06-04 01:00:00
31,优,330182,40,29.4769,优,--,35,16,49,优,#00E400,#00E400,7,建德监测大楼,#00E400,32,优,优,优,330100,#00E400,119.2711,#00E400,22,优,1.0,优,#00E400,#00E400,330182T_2,优,#00E400,杭州市,#00E400,优,32,27,#00E400,32,2026-06-04 01:00:00
32,优,330521,54,30.5231,优,--,42,8,57,优,#00E400,#00E400,7,地信科创园,#00E400,32,优,优,优,330500,#00E400,119.9781,#00E400,22,优,0.7,优,#00E400,#00E400,330521001,优,#00E400,湖州市,#00E400,优,29,30,#00E400,32,2026-06-04 01:00:00
33,优,330213,7,29.693,优,--,43,24,18,优,#00E400,#00E400,4,溪口政府大楼,#00E400,34,优,优,优,330200,#00E400,121.2774,#00E400,22,优,0.5,优,#00E400,#00E400,330283T_1,优,#00E400,宁波市,#00E400,优,34,31,#00E400,34,2026-06-04 01:00:00
34,优,331083,76,28.2221,优,--,30,9,97,优,#00E400,#00E400,6,楚门中心小学,#00E400,34,优,优,优,331000,#00E400,121.2846,#00E400,20,优,0.8,优,#00E400,#00E400,331021002,优,#00E400,台州市,#00E400,优,34,24,#00E400,34,2026-06-04 01:00:00
35,优,331024,37,28.7403,优,--,41,21,76,优,#00E400,#00E400,5,新生中学,#00E400,34,优,优,优,331000,#00E400,120.4728,#00E400,23,优,0.6,优,#00E400,#00E400,331024002,优,#00E400,台州市,#00E400,优,34,29,#00E400,34,2026-06-04 01:00:00
36,优,330281,6,30.0358,优,--,39,34,26,优,#00E400,#00E400,5,姚江小学,#00E400,35,优,优,优,330200,#00E400,121.1221,#00E400,24,优,0.7,优,#00E400,#00E400,330281002,优,#00E400,宁波市,#00E400,优,29,31,#00E400,37,2026-06-04 01:00:00
37,优,331122,56,28.6628,优,--,53,22,74,优,#00E400,#00E400,6,信访大楼,#00E400,35,优,优,良,331100,#00E400,120.0856,#00E400,24,优,0.7,优,#00E400,#00E400,331122002,优,#00E400,丽水市,#00E400,优,33,35,#FFFF00,37,2026-06-04 01:00:00
38,优,330421,46,30.8307,优,--,52,21,61,优,#00E400,#00E400,7,气象观测台,#00E400,36,优,优,良,330400,#00E400,120.9356,#00E400,23,优,0.6,优,#00E400,#00E400,330421002,优,#00E400,嘉兴市,#00E400,优,36,29,#FFFF00,39,2026-06-04 01:00:00
39,优,330424,63,30.5042,优,--,46,15,70,优,#00E400,#00E400,5,高级中学,#00E400,36,优,优,优,330400,#00E400,120.9413,#00E400,25,优,0.6,优,#00E400,#00E400,330424001,优,#00E400,嘉兴市,#00E400,优,34,34,#00E400,39,2026-06-04 01:00:00
40,优,330424,68,30.5299,优,--,41,17,70,优,#00E400,#00E400,4,海盐商贸学校,#00E400,36,优,优,优,330400,#00E400,120.9293,#00E400,25,优,0.5,优,#00E400,#00E400,330424002,优,#00E400,嘉兴市,#00E400,优,30,33,#00E400,39,2026-06-04 01:00:00
41,优,331081,70,28.37558,优,--,47,9,84,优,#00E400,#00E400,5,温岭环监站,#00E400,36,优,优,优,331000,#00E400,121.36579,#00E400,25,优,0.6,优,#00E400,#FFFF00,331081001,良,#00E400,台州市,#00E400,优,35,36,#00E400,39,2026-06-04 01:00:00
42,优,331181,15,28.08007,优,--,40,8,27,优,#00E400,#00E400,8,龙泉环保大楼,#00E400,36,优,优,优,331100,#00E400,119.1328,#00E400,25,优,0.5,优,#00E400,#00E400,331181001,优,#00E400,丽水市,#00E400,优,34,27,#00E400,39,2026-06-04 01:00:00
43,优,330521,37,30.548493,优,--,42,19,51,优,#00E400,#00E400,8,春晖小学,#00E400,36,优,优,优,330500,#00E400,119.9505,#00E400,25,优,0.6,优,#00E400,#00E400,330521003,优,#00E400,湖州市,#00E400,优,32,31,#00E400,39,2026-06-04 01:00:00
44,优,330523,30,30.6422,优,--,45,12,40,优,#00E400,#00E400,6,安吉实验小学,#00E400,38,优,优,优,330500,#00E400,119.6768,#00E400,26,优,0.5,优,#00E400,#FFFF00,330523001,良,#00E400,湖州市,#00E400,优,32,36,#00E400,45,2026-06-04 01:00:00
45,优,330921,55,30.2669,优,--,46,30,72,优,#00E400,#00E400,4,岱山环保大楼,#00E400,38,优,优,优,330900,#00E400,122.2199,#00E400,26,优,0.5,优,#00E400,#00E400,330921001,优,#00E400,舟山市,#00E400,优,34,32,#00E400,45,2026-06-04 01:00:00
46,优,331127,15,28.002222,优,--,35,11,30,优,#00E400,#00E400,4,红星小学,#00E400,39,优,优,优,331100,#00E400,119.636389,#00E400,27,优,0.5,优,#00E400,#00E400,331127003,优,#00E400,丽水市,#00E400,优,38,23,#00E400,47,2026-06-04 01:00:00
47,优,330213,50,29.6506,优,--,41,14,51,优,#00E400,#00E400,6,奉化教育局,#00E400,39,优,优,优,330200,#00E400,121.4042,#00E400,25,优,0.7,优,#00E400,#00E400,330283005,优,#00E400,宁波市,#00E400,优,39,25,#00E400,47,2026-06-04 01:00:00
48,良,330225,92,29.2003,优,--,40,5,110,优,#00E400,#00E400,7,石浦新港小学,#FFFF00,39,优,优,优,330200,#00E400,121.934,#00E400,23,优,0.6,优,#00E400,#00E400,330225002,优,#00E400,宁波市,#00E400,优,39,25,#00E400,47,2026-06-04 01:00:00
49,优,330727,26,29.051486,优,--,45,19,40,优,#00E400,#00E400,7,国税大楼,#00E400,39,优,优,优,330700,#00E400,120.438346,#00E400,26,优,0.7,优,#00E400,#00E400,330727002,优,#00E400,金华市,#00E400,优,39,27,#00E400,47,2026-06-04 01:00:00
50,优,330921,60,30.2517,优,--,52,17,71,优,#00E400,#00E400,7,岱山高亭,#00E400,39,优,优,良,330900,#00E400,122.1958,#00E400,27,优,0.6,优,#00E400,#00E400,330921002,优,#00E400,舟山市,#00E400,优,36,31,#FFFF00,47,2026-06-04 01:00:00
51,优,330110,50,30.2635,优,--,35,16,66,优,#00E400,#00E400,8,海辰小学,#00E400,39,优,优,优,330100,#00E400,119.9842,#00E400,27,优,0.7,优,#00E400,#00E400,2013301100001,优,#00E400,杭州市,#00E400,优,34,27,#00E400,47,2026-06-04 01:00:00
52,优,330482,48,30.6937,优,--,43,18,57,优,#00E400,#00E400,8,平湖幼儿园,#00E400,40,优,优,优,330400,#00E400,121.0259,#00E400,28,优,0.6,优,#00E400,#00E400,330482001,优,#00E400,嘉兴市,#00E400,优,32,32,#00E400,53,2026-06-04 01:00:00
53,优,330482,59,30.7292,优,--,45,13,68,优,#00E400,#00E400,8,陆家桥村,#00E400,40,优,优,优,330400,#00E400,120.9953,#00E400,28,优,0.8,优,#00E400,#00E400,330482002,优,#00E400,嘉兴市,#00E400,优,37,31,#00E400,53,2026-06-04 01:00:00
54,优,330122,90,29.8058,优,--,41,12,66,优,#00E400,#00E400,4,桐庐江北,#00E400,42,优,优,优,330100,#00E400,119.669,#00E400,29,优,0.6,优,#00E400,#00E400,330122002,优,#00E400,杭州市,#00E400,优,39,27,#00E400,55,2026-06-04 01:00:00
55,优,330182,55,29.4638,优,--,37,20,59,优,#00E400,#00E400,5,第二中学,#00E400,42,优,优,优,330100,#00E400,119.2821,#00E400,29,优,1.1,优,#00E400,#00E400,330182002,优,#00E400,杭州市,#00E400,优,35,30,#00E400,55,2026-06-04 01:00:00
56,优,330324,43,28.044335,优,--,50,31,80,优,#00E400,#00E400,5,瓯北,#00E400,42,优,优,优,330300,#00E400,120.654963,#00E400,20,优,0.7,优,#00E400,#00E400,330324002,优,#00E400,温州市,#00E400,优,42,24,#00E400,55,2026-06-04 01:00:00
57,优,330624,4,29.4938,优,--,45,31,30,优,#00E400,#00E400,4,城东站,#00E400,42,优,优,优,330600,#00E400,120.9109,#00E400,26,优,0.7,优,#00E400,#00E400,330624002,优,#00E400,绍兴市,#00E400,优,42,32,#00E400,55,2026-06-04 01:00:00
58,优,330329,73,27.557,优,--,35,10,60,优,#00E400,#00E400,6,罗阳,#00E400,43,优,优,优,330300,#00E400,119.7084,#00E400,30,优,0.7,优,#00E400,#00E400,330329001,优,#00E400,温州市,#00E400,优,41,24,#00E400,59,2026-06-04 01:00:00
59,优,330522,11,31.0263,优,--,52,41,40,优,#00E400,#00E400,8,龙山新区,#00E400,43,优,优,良,330500,#00E400,119.9046,#00E400,30,优,0.5,优,#00E400,#FFFF00,330522002,良,#00E400,湖州市,#00E400,优,40,36,#FFFF00,59,2026-06-04 01:00:00
60,优,330727,20,29.039869,优,--,46,18,38,优,#00E400,#00E400,7,南园初中,#00E400,43,优,优,优,330700,#00E400,120.440622,#00E400,30,优,0.6,优,#00E400,#00E400,330727003,优,#00E400,金华市,#00E400,优,43,34,#00E400,59,2026-06-04 01:00:00
61,优,331023,54,29.1504,优,--,44,21,69,优,#00E400,#00E400,5,育青中学,#00E400,44,优,优,优,331000,#00E400,121.0091,#00E400,30,优,0.7,优,#00E400,#00E400,331023001,优,#00E400,台州市,#00E400,优,44,28,#00E400,62,2026-06-04 01:00:00
62,优,330122,64,29.7955,优,--,44,20,65,优,#00E400,#00E400,5,桐庐江南,#00E400,45,优,优,优,330100,#00E400,119.6874,#00E400,28,优,0.6,优,#00E400,#00E400,330122001,优,#00E400,杭州市,#00E400,优,45,26,#00E400,63,2026-06-04 01:00:00
63,优,330226,26,29.2878,优,--,44,19,41,优,#00E400,#00E400,6,宁海城南站,#00E400,45,优,优,优,330200,#00E400,121.4201,#00E400,30,优,0.5,优,#00E400,#00E400,330226002,优,#00E400,宁波市,#00E400,优,45,28,#00E400,63,2026-06-04 01:00:00
64,优,330522,12,31.0143,优,--,54,42,38,优,#00E400,#00E400,3,职教中心,#00E400,45,优,优,良,330500,#00E400,119.8935,#00E400,31,优,0.5,优,#00E400,#FFFF00,330522001,良,#00E400,湖州市,#00E400,优,42,36,#FFFF00,63,2026-06-04 01:00:00
65,优,330212,51,29.7736,优,--,35,11,45,优,#00E400,#00E400,4,钱湖水厂,#00E400,45,优,优,优,330200,#00E400,121.6330,#00E400,31,优,0.7,优,#00E400,#00E400,2013302120001,优,#00E400,宁波市,#00E400,优,41,24,#00E400,63,2026-06-04 01:00:00
66,优,330329,72,27.5438,优,--,34,12,54,优,#00E400,#00E400,7,泰顺实验中学,#00E400,46,优,优,优,330300,#00E400,119.716111,#00E400,31,优,0.7,优,#00E400,#00E400,330329002,优,#00E400,温州市,#00E400,优,46,24,#00E400,67,2026-06-04 01:00:00
67,优,330481,14,30.5137,优,--,55,31,46,优,#00E400,#00E400,8,硖石街道,#00E400,46,优,优,良,330400,#00E400,120.7082,#00E400,32,优,0.7,优,#00E400,#FFFF00,330481002,良,#00E400,嘉兴市,#00E400,优,43,36,#FFFF00,67,2026-06-04 01:00:00
68,优,330421,57,30.836,优,--,60,25,66,优,#00E400,#00E400,5,嘉善监测大楼,#00E400,46,优,优,良,330400,#00E400,120.9226,#00E400,32,优,0.6,优,#00E400,#FFFF00,330421001,良,#00E400,嘉兴市,#00E400,优,38,39,#FFFF00,67,2026-06-04 01:00:00
69,优,331022,43,29.1028,优,--,42,10,60,优,#00E400,#00E400,4,心湖站,#00E400,46,优,优,优,331000,#00E400,121.3918,#00E400,32,优,0.5,优,#00E400,#00E400,331022002,优,#00E400,台州市,#00E400,优,41,29,#00E400,67,2026-06-04 01:00:00
70,优,330282,36,30.1786,优,--,54,18,56,优,#00E400,#00E400,5,慈溪实验小学,#00E400,47,优,优,良,330200,#00E400,121.2525,#00E400,26,优,0.6,优,#00E400,#00E400,330282002,优,#00E400,宁波市,#00E400,优,47,30,#FFFF00,71,2026-06-04 01:00:00
71,优,330324,40,28.158269,优,--,55,12,74,优,#00E400,#00E400,6,上塘,#00E400,47,优,优,良,330300,#00E400,120.694244,#00E400,28,优,0.9,优,#00E400,#00E400,330324001,优,#00E400,温州市,#00E400,优,47,31,#FFFF00,71,2026-06-04 01:00:00
72,优,330281,19,30.0497,优,--,43,29,36,优,#00E400,#00E400,5,龙山公园,#00E400,48,优,优,优,330200,#00E400,121.1475,#00E400,33,优,1.0,优,#00E400,#00E400,330281001,优,#00E400,宁波市,#00E400,优,39,30,#00E400,73,2026-06-04 01:00:00
73,优,330282,31,30.1636,优,--,55,20,51,优,#00E400,#00E400,5,慈溪环保大楼,#00E400,49,优,优,良,330200,#00E400,121.2677,#00E400,27,优,0.7,优,#00E400,#00E400,330282001,优,#00E400,宁波市,#00E400,优,49,28,#FFFF00,74,2026-06-04 01:00:00
74,优,330381,59,27.791645,优,--,57,14,75,优,#00E400,#00E400,5,花园桥,#00E400,49,优,优,良,330300,#00E400,120.62372,#00E400,25,优,0.5,优,#00E400,#00E400,330381001,优,#00E400,温州市,#00E400,优,49,30,#FFFF00,74,2026-06-04 01:00:00
75,优,330624,3,29.5036,优,--,48,36,22,优,#00E400,#00E400,4,钟楼站,#00E400,49,优,优,优,330600,#00E400,120.8938,#00E400,32,优,0.8,优,#00E400,#00E400,330624001,优,#00E400,绍兴市,#00E400,优,49,33,#00E400,74,2026-06-04 01:00:00
76,优,330483,34,30.6488,优,--,54,33,56,优,#00E400,#00E400,4,茅盾小学,#00E400,50,优,优,良,330400,#00E400,120.5498,#00E400,33,优,0.6,优,#00E400,#00E400,330483001,优,#00E400,嘉兴市,#00E400,优,50,32,#FFFF00,77,2026-06-04 01:00:00
77,优,330683,28,29.5663,优,--,46,36,47,优,#00E400,#00E400,3,丽湖小区,#00E400,50,优,优,优,330600,#00E400,120.8173,#00E400,35,优,0.7,优,#00E400,#FFFF00,330683002,良,#00E400,绍兴市,#00E400,优,43,36,#00E400,77,2026-06-04 01:00:00
78,优,330781,50,29.216166,优,--,45,14,54,优,#00E400,#00E400,7,兰溪监测站,#00E400,50,优,优,优,330700,#00E400,119.459992,#00E400,35,优,0.9,优,#00E400,#00E400,330781001,优,#00E400,金华市,#00E400,优,46,31,#00E400,77,2026-06-04 01:00:00
79,优,331082,70,28.873,优,--,44,19,93,优,#00E400,#00E400,5,临海环保大楼,#00E400,50,优,优,优,331000,#00E400,121.1769,#00E400,35,优,0.8,优,#00E400,#00E400,331082001,优,#00E400,台州市,#00E400,优,43,30,#00E400,77,2026-06-04 01:00:00
80,优,330481,32,30.5524,优,PM₁₀,58,18,55,优,#FFFF00,#00E400,6,胜利社区,#00E400,51,优,良,良,330400,#00E400,120.6713,#00E400,28,良,0.7,优,#00E400,#00E400,330481003,优,#FFFF00,嘉兴市,#00E400,优,51,31,#FFFF00,81,2026-06-04 01:00:00
81,优,330383,84,27.5617,优,PM₁₀,60,9,100,优,#FFFF00,#00E400,7,龙港实验中学,#00E400,51,优,良,良,330300,#00E400,120.5355,#00E400,34,良,0.7,优,#00E400,#FFFF00,330303101,良,#FFFF00,温州市,#00E400,优,51,38,#FFFF00,81,2026-06-04 01:00:00
82,优,330213,64,29.6774,优,PM₂.₅,46,12,66,优,#00E400,#FFFF00,5,大桥市场,#00E400,52,优,良,优,330200,#00E400,121.4237,#00E400,36,优,0.7,良,#00E400,#00E400,330213001,优,#FFFF00,宁波市,#00E400,优,49,31,#00E400,83,2026-06-04 01:00:00
83,良,330382,82,28.1209,优,PM₁₀,48,6,103,优,#FFFF00,#00E400,4,乐成,#FFFF00,52,优,良,优,330300,#00E400,120.9659,#00E400,28,良,0.6,优,#00E400,#00E400,330382001,优,#FFFF00,温州市,#00E400,优,52,28,#00E400,83,2026-06-04 01:00:00
84,优,330726,69,29.465746,优,PM₂.₅,36,7,43,优,#00E400,#FFFF00,6,浦江实验中学,#00E400,52,优,良,优,330700,#00E400,119.875227,#00E400,36,优,0.9,良,#00E400,#00E400,330726001,优,#FFFF00,金华市,#00E400,优,47,26,#00E400,83,2026-06-04 01:00:00
85,优,330726,51,29.439787,优,PM₂.₅,40,14,50,优,#00E400,#FFFF00,3,浦江中学,#00E400,52,优,良,优,330700,#00E400,119.924638,#00E400,36,优,0.7,良,#00E400,#00E400,330726002,优,#FFFF00,金华市,#00E400,优,50,29,#00E400,83,2026-06-04 01:00:00
86,优,331022,55,29.11779,优,PM₂.₅,43,19,68,优,#00E400,#FFFF00,5,三门环监楼,#00E400,52,优,良,优,331000,#00E400,121.382189,#00E400,36,优,0.7,良,#00E400,#00E400,331022001,优,#FFFF00,台州市,#00E400,优,47,29,#00E400,83,2026-06-04 01:00:00
87,优,330483,25,30.7369,优,PM₂.₅,50,30,48,优,#00E400,#FFFF00,6,植材小学,#00E400,52,优,良,优,330400,#00E400,120.4902,#00E400,36,优,0.9,良,#00E400,#00E400,330483509,优,#FFFF00,嘉兴市,#00E400,优,49,34,#00E400,83,2026-06-04 01:00:00
88,优,330226,45,29.3125,优,PM₁₀,44,16,59,优,#FFFF00,#00E400,5,宁海水利局,#00E400,53,优,良,优,330200,#00E400,121.4306,#00E400,35,良,0.5,优,#00E400,#00E400,330226001,优,#FFFF00,宁波市,#00E400,优,53,28,#00E400,89,2026-06-04 01:00:00
89,优,330382,87,28.0297,优,PM₁₀,49,7,96,优,#FFFF00,#00E400,5,柳市,#00E400,53,优,良,优,330300,#00E400,120.891,#00E400,22,良,0.6,优,#00E400,#00E400,330382002,优,#FFFF00,温州市,#00E400,优,53,25,#00E400,89,2026-06-04 01:00:00
90,优,330481,39,30.5261,优,PM₁₀,60,25,61,优,#FFFF00,#00E400,6,海宁监测大楼,#00E400,53,优,良,良,330400,#00E400,120.6739,#00E400,35,良,0.4,优,#00E400,#FFFF00,330481001,良,#FFFF00,嘉兴市,#00E400,优,53,37,#FFFF00,89,2026-06-04 01:00:00
91,优,330783,3,29.30093,优,PM₁₀,57,40,29,优,#FFFF00,#00E400,6,广厦学院,#00E400,53,优,良,良,330700,#00E400,120.24157,#00E400,33,良,0.9,优,#00E400,#00E400,330783001,优,#FFFF00,金华市,#00E400,优,53,32,#FFFF00,89,2026-06-04 01:00:00
92,--,330327,76,27.522222,优,PM₂.₅,--,9,--,优,#FFFF00,#FFFF00,8,苍南中学,--,54,优,良,--,330300,#00E400,120.416111,#00E400,37,良,0.9,良,#00E400,--,330327004,--,#FFFF00,温州市,#00E400,优,54,--,--,93,2026-06-04 01:00:00
93,优,330683,24,29.5901,优,PM₂.₅,49,24,48,优,#00E400,#FFFF00,4,马寅初初中,#00E400,54,优,良,优,330600,#00E400,120.8249,#00E400,37,优,0.7,良,#00E400,#00E400,330683001,优,#FFFF00,绍兴市,#00E400,优,49,35,#00E400,93,2026-06-04 01:00:00
94,优,330784,43,28.90016,优,PM₂.₅,76,12,47,优,#FFFF00,#FFFF00,8,西城供电所,#00E400,54,优,良,良,330700,#00E400,120.01452,#00E400,37,良,0.7,良,#00E400,--,330784002,--,#FFFF00,金华市,#00E400,优,53,--,#FFFF00,93,2026-06-04 01:00:00
95,优,331023,58,29.1342,优,PM₂.₅,49,18,76,优,#FFFF00,#FFFF00,6,天台实验中学,#00E400,54,优,良,优,331000,#00E400,121.0349,#00E400,37,良,0.7,良,#00E400,#00E400,331023002,优,#FFFF00,台州市,#00E400,优,54,27,#00E400,93,2026-06-04 01:00:00
96,优,330327,77,27.503889,优,PM₁₀,61,7,98,优,#FFFF00,#00E400,9,灵溪,#00E400,55,优,良,良,330300,#00E400,120.395278,#00E400,25,良,0.6,优,#00E400,#FFFF00,330327001,良,#FFFF00,温州市,#00E400,优,56,38,#FFFF00,97,2026-06-04 01:00:00
97,优,330383,82,27.5812,优,PM₁₀,70,10,94,优,#FFFF00,#00E400,7,龙港,#00E400,56,优,良,良,330300,#00E400,120.5489,#00E400,35,良,0.6,优,#00E400,#FFFF00,330327002,良,#FFFF00,温州市,#00E400,优,58,42,#FFFF00,98,2026-06-04 01:00:00
98,优,330783,25,29.27739,优,PM₂.₅,55,22,42,优,#FFFF00,#FFFF00,6,东阳环保大楼,#00E400,58,优,良,良,330700,#00E400,120.23692,#00E400,39,良,0.8,良,#00E400,#FFFF00,330783002,良,#FFFF00,金华市,#00E400,优,51,37,#FFFF00,99,2026-06-04 01:00:00
99,优,330483,25,30.6355,优,PM₂.₅,54,18,47,优,#00E400,#FFFF00,8,文化中心,#00E400,58,优,良,良,330400,#00E400,120.5795,#00E400,39,优,0.8,良,#00E400,#FFFF00,330483003,良,#FFFF00,嘉兴市,#00E400,优,45,36,#FFFF00,99,2026-06-04 01:00:00
100,优,330328,49,27.804722,优,PM₂.₅,47,8,72,优,#FFFF00,#FFFF00,7,文成中学,#00E400,60,优,良,优,330300,#00E400,120.077222,#00E400,40,良,0.7,良,#00E400,#00E400,330328002,优,#FFFF00,温州市,#00E400,优,52,32,#00E400,101,2026-06-04 01:00:00
101,优,330328,46,27.7838,优,PM₂.₅,50,15,95,优,#FFFF00,#FFFF00,3,大峃,#00E400,62,优,良,优,330300,#00E400,120.085,#00E400,41,良,0.7,良,#00E400,#00E400,330328001,优,#FFFF00,温州市,#00E400,优,57,30,#00E400,102,2026-06-04 01:00:00
102,优,330784,40,28.8854,优,PM₂.₅,67,20,52,优,#FFFF00,#FFFF00,6,永康一中,#00E400,64,优,良,良,330700,#00E400,120.0439,#00E400,42,良,0.8,良,#00E400,#FFFF00,330784001,良,#FFFF00,金华市,#00E400,优,62,41,#FFFF00,103,2026-06-04 01:00:00
103,优,330681,29,29.7257,优,PM₂.₅,56,30,52,优,#FFFF00,#FFFF00,7,城新小学,#00E400,66,优,良,良,330600,#00E400,120.272,#00E400,43,良,0.6,良,#00E400,#FFFF00,330681505,良,#FFFF00,绍兴市,#00E400,优,62,38,#FFFF00,104,2026-06-04 01:00:00
104,优,331082,62,28.84326,优,PM₂.₅,55,21,90,优,#FFFF00,#FFFF00,4,巾山实验小学,#00E400,66,优,良,良,331000,#00E400,121.136,#00E400,43,良,0.6,良,#00E400,#FFFF00,331082002,良,#FFFF00,台州市,#00E400,优,56,37,#FFFF00,104,2026-06-04 01:00:00
105,优,330483,40,30.625,优,PM₁₀,73,38,56,优,#FFFF00,#FFFF00,5,振东新六中站,#00E400,67,优,良,良,330400,#00E400,120.5613,#00E400,43,良,0.7,良,#00E400,#FFFF00,330483002,良,#FFFF00,嘉兴市,#00E400,优,73,38,#FFFF00,106,2026-06-04 01:00:00
106,优,330225,101,29.4767,优,PM₂.₅,35,4,83,优,#FFFF00,#FFFF00,8,文峰小学,#00E400,70,优,良,优,330200,#00E400,121.8864,#00E400,45,良,0.5,良,#00E400,#00E400,330225001,优,#FFFF00,宁波市,#00E400,优,63,33,#00E400,107,2026-06-04 01:00:00
107,--,330681,22,29.6818,优,PM₂.₅,52,30,--,优,#FFFF00,#FFFF00,6,杨树畈,--,70,优,良,良,330600,#00E400,120.2359,#00E400,45,良,0.6,良,#00E400,#FFFF00,330681001,良,#FFFF00,绍兴市,#00E400,优,53,39,#FFFF00,107,2026-06-04 01:00:00
108,优,330781,51,29.229931,优,PM₂.₅,46,16,53,优,#FFFF00,#FFFF00,6,兰溪八中,#00E400,72,优,良,优,330700,#00E400,119.475172,#00E400,46,良,0.7,良,#00E400,#00E400,330781002,优,#FFFF00,金华市,#00E400,优,51,35,#00E400,109,2026-06-04 01:00:00
109,优,330681,42,29.726389,优,PM₂.₅,45,20,36,优,#FFFF00,#FFFF00,6,青少年宫,#00E400,76,优,良,优,330600,#00E400,120.199722,#00E400,48,良,0.8,良,#00E400,#00E400,330681002,优,#FFFF00,绍兴市,#00E400,优,54,34,#00E400,110,2026-06-04 01:00:00
110,优,330782,28,29.305096,优,PM₂.₅,56,28,36,优,#FFFF00,#FFFF00,5,江东,#00E400,84,优,良,良,330700,#00E400,120.090442,#00E400,52,良,0.9,良,#00E400,#FFFF00,330782002,良,#FFFF00,金华市,#00E400,优,70,37,#FFFF00,111,2026-06-04 01:00:00
111,优,330782,26,29.335473,优,PM₂.₅,56,33,37,优,#FFFF00,#FFFF00,7,北苑,#00E400,88,优,良,良,330700,#00E400,120.078609,#00E400,54,良,1.0,良,#00E400,#00E400,330782001,优,#FFFF00,金华市,#00E400,优,84,32,#FFFF00,112,2026-06-04 01:00:00
112,优,330782,26,29.3686,优,PM₂.₅,67,34,33,优,#FFFF00,#FFFF00,9,第五中学,#00E400,88,优,良,良,330700,#00E400,120.1345,#00E400,54,良,1.0,良,#00E400,#FFFF00,330782003,良,#FFFF00,金华市,#00E400,优,90,38,#FFFF00,112,2026-06-04 01:00:00
113,优,330782,28,29.2637,优,PM₂.₅,68,26,35,优,#FFFF00,#FFFF00,6,儿童公园,#00E400,92,优,良,良,330700,#00E400,120.0321,#00E400,56,良,0.8,良,#00E400,#FFFF00,330782004,良,#FFFF00,金华市,#00E400,优,98,37,#FFFF00,114,2026-06-04 01:00:00
114,--,330326,--,27.6593,--,--,57,12,--,--,#00E400,#00E400,9,平阳监测站,--,--,优,--,良,330300,#00E400,120.5705,#00E400,25,优,--,优,--,#00E400,330326001,优,--,温州市,--,优,37,34,#FFFF00,115,2026-06-04 01:00:00
115,--,330326,--,27.6653,--,--,--,--,--,--,--,--,--,平阳县政府,--,--,--,--,--,330300,--,120.5611,--,--,--,--,--,--,--,330326002,--,--,温州市,--,--,--,--,--,115,2026-06-04 01:00:00
116,--,330523,--,30.5974,--,--,--,--,--,--,--,--,--,安吉城东,--,--,--,--,--,330500,--,119.6953,--,--,--,--,--,--,--,330523002,--,--,湖州市,--,--,--,--,--,115,2026-06-04 01:00:00
117,优,331081,83,28.39136,优,--,--,3,94,优,--,#00E400,3,之江高级中学,#00E400,--,优,--,--,331000,#00E400,121.37696,#00E400,22,--,0.5,优,#00E400,#00E400,331081002,优,--,台州市,#00E400,优,--,26,--,115,2026-06-04 01:00:00
